{
   "plus_code" : {
      "compound_code" : "JPFH+QF Curitiba, State of Paraná, Brazil",
      "global_code" : "586GJPFH+QF"
   },
   "results" : [
      {
         "address_components" : [
            {
               "long_name" : "nº 1655",
               "short_name" : "nº 1655",
               "types" : [ "street_number" ]
            },
            {
               "long_name" : "Rua Carmelina Cavassin",
               "short_name" : "Rua Carmelina Cavassin",
               "types" : [ "route" ]
            },
            {
               "long_name" : "Abranches",
               "short_name" : "Abranches",
               "types" : [ "political", "sublocality", "sublocality_level_1" ]
            },
            {
               "long_name" : "Curitiba",
               "short_name" : "Curitiba",
               "types" : [ "administrative_area_level_2", "political" ]
            },
            {
               "long_name" : "Paraná",
               "short_name" : "PR",
               "types" : [ "administrative_area_level_1", "political" ]
            },
            {
               "long_name" : "Brazil",
               "short_name" : "BR",
               "types" : [ "country", "political" ]
            },
            {
               "long_name" : "82220-170",
               "short_name" : "82220-170",
               "types" : [ "postal_code" ]
            }
         ],
         "formatted_address" : "Rua Carmelina Cavassin, nº 1655 - Abranches, Curitiba - PR, 82220-170, Brazil",
         "geometry" : {
            "location" : {
               "lat" : -25.3751451,
               "lng" : -49.2722116
            },
            "location_type" : "ROOFTOP",
            "viewport" : {
               "northeast" : {
                  "lat" : -25.37379611970849,
                  "lng" : -49.2708626197085
               },
               "southwest" : {
                  "lat" : -25.3764940802915,
                  "lng" : -49.27356058029149
               }
            }
         },
         "place_id" : "ChIJ98uzsdnm3JQRE9Meen06gLY",
         "plus_code" : {
            "compound_code" : "JPFH+W4 Curitiba, State of Paraná, Brazil",
            "global_code" : "586GJPFH+W4"
         },
         "types" : [ "establishment", "lawyer", "point_of_interest" ]
      },
      {
         "address_components" : [
            {
               "long_name" : "28",
               "short_name" : "28",
               "types" : [ "street_number" ]
            },
            {
               "long_name" : "Rua Herbert Munhoz Van Erven",
               "short_name" : "R. Herbert Munhoz Van Erven",
               "types" : [ "route" ]
            },
            {
               "long_name" : "Abranches",
               "short_name" : "Abranches",
               "types" : [ "political", "sublocality", "sublocality_level_1" ]
            },
            {
               "long_name" : "Curitiba",
               "short_name" : "Curitiba",
               "types" : [ "administrative_area_level_2", "political" ]
            },
            {
               "long_name" : "Paraná",
               "short_name" : "PR",
               "types" : [ "administrative_area_level_1", "political" ]
            },
            {
               "long_name" : "Brazil",
               "short_name" : "BR",
               "types" : [ "country", "political" ]
            },
            {
               "long_name" : "82220-432",
               "short_name" : "82220-432",
               "types" : [ "postal_code" ]
            }
         ],
         "formatted_address" : "R. Herbert Munhoz Van Erven, 28 - Abranches, Curitiba - PR, 82220-432, Brazil",
         "geometry" : {
            "location" : {
               "lat" : -25.37609,
               "lng" : -49.272109
            },
            "location_type" : "ROOFTOP",
            "viewport" : {
               "northeast" : {
                  "lat" : -25.3747410197085,
                  "lng" : -49.2707600197085
               },
               "southwest" : {
                  "lat" : -25.3774389802915,
                  "lng" : -49.2734579802915
               }
            }
         },
         "place_id" : "ChIJI_Nil9nm3JQRVp_u2k5c_u8",
         "plus_code" : {
            "compound_code" : "JPFH+H5 Curitiba, State of Paraná, Brazil",
            "global_code" : "586GJPFH+H5"
         },
         "types" : [ "street_address" ]
      },
      {
         "address_components" : [
            {
               "long_name" : "Unnamed Road",
               "short_name" : "Unnamed Road",
               "types" : [ "route" ]
            },
            {
               "long_name" : "Abranches",
               "short_name" : "Abranches",
               "types" : [ "political", "sublocality", "sublocality_level_1" ]
            },
            {
               "long_name" : "Curitiba",
               "short_name" : "Curitiba",
               "types" : [ "administrative_area_level_2", "political" ]
            },
            {
               "long_name" : "Paraná",
               "short_name" : "PR",
               "types" : [ "administrative_area_level_1", "political" ]
            },
            {
               "long_name" : "Brazil",
               "short_name" : "BR",
               "types" : [ "country", "political" ]
            },
            {
               "long_name" : "82130",
               "short_name" : "82130",
               "types" : [ "postal_code", "postal_code_prefix" ]
            }
         ],
         "formatted_address" : "Unnamed Road - Abranches, Curitiba - PR, 82130, Brazil",
         "geometry" : {
            "bounds" : {
               "northeast" : {
                  "lat" : -25.3746862,
                  "lng" : -49.2715872
               },
               "southwest" : {
                  "lat" : -25.3752421,
                  "lng" : -49.2722246
               }
            },
            "location" : {
               "lat" : -25.3749642,
               "lng" : -49.2719059
            },
            "location_type" : "GEOMETRIC_CENTER",
            "viewport" : {
               "northeast" : {
                  "lat" : -25.3736151697085,
                  "lng" : -49.2705569197085
               },
               "southwest" : {
                  "lat" : -25.3763131302915,
                  "lng" : -49.2732548802915
               }
            }
         },
         "place_id" : "ChIJW_-Nrtnm3JQRJEozRWEownQ",
         "types" : [ "route" ]
      },
      {
         "address_components" : [
            {
               "long_name" : "82130",
               "short_name" : "82130",
               "types" : [ "postal_code", "postal_code_prefix" ]
            },
            {
               "long_name" : "Curitiba",
               "short_name" : "Curitiba",
               "types" : [ "administrative_area_level_2", "political" ]
            },
            {
               "long_name" : "State of Paraná",
               "short_name" : "PR",
               "types" : [ "administrative_area_level_1", "political" ]
            },
            {
               "long_name" : "Brazil",
               "short_name" : "BR",
               "types" : [ "country", "political" ]
            }
         ],
         "formatted_address" : "Curitiba - State of Paraná, 82130, Brazil",
         "geometry" : {
            "bounds" : {
               "northeast" : {
                  "lat" : -25.3594873,
                  "lng" : -49.2672684
               },
               "southwest" : {
                  "lat" : -25.3820316,
                  "lng" : -49.28562530000001
               }
            },
            "location" : {
               "lat" : -25.3712508,
               "lng" : -49.276539
            },
            "location_type" : "APPROXIMATE",
            "viewport" : {
               "northeast" : {
                  "lat" : -25.3594873,
                  "lng" : -49.2672684
               },
               "southwest" : {
                  "lat" : -25.3820316,
                  "lng" : -49.28562530000001
               }
            }
         },
         "place_id" : "ChIJU3AK_Sjn3JQRbtAZn3LDz9k",
         "types" : [ "postal_code", "postal_code_prefix" ]
      },
      {
         "address_components" : [
            {
               "long_name" : "Abranches",
               "short_name" : "Abranches",
               "types" : [ "political", "sublocality", "sublocality_level_1" ]
            },
            {
               "long_name" : "Curitiba",
               "short_name" : "Curitiba",
               "types" : [ "administrative_area_level_2", "political" ]
            },
            {
               "long_name" : "State of Paraná",
               "short_name" : "PR",
               "types" : [ "administrative_area_level_1", "political" ]
            },
            {
               "long_name" : "Brazil",
               "short_name" : "BR",
               "types" : [ "country", "political" ]
            }
         ],
         "formatted_address" : "Abranches, Curitiba - State of Paraná, Brazil",
         "geometry" : {
            "bounds" : {
               "northeast" : {
                  "lat" : -25.3467369,
                  "lng" : -49.2649181
               },
               "southwest" : {
                  "lat" : -25.3877003,
                  "lng" : -49.2820398
               }
            },
            "location" : {
               "lat" : -25.3705231,
               "lng" : -49.2705171
            },
            "location_type" : "APPROXIMATE",
            "viewport" : {
               "northeast" : {
                  "lat" : -25.3467369,
                  "lng" : -49.2649181
               },
               "southwest" : {
                  "lat" : -25.3877003,
                  "lng" : -49.2820398
               }
            }
         },
         "place_id" : "ChIJ9y3fDyXn3JQRKercW0D-uxc",
         "types" : [ "political", "sublocality", "sublocality_level_1" ]
      },
      {
         "address_components" : [
            {
               "long_name" : "Boa Vista",
               "short_name" : "Boa Vista",
               "types" : [ "administrative_area_level_4", "political" ]
            },
            {
               "long_name" : "Curitiba",
               "short_name" : "Curitiba",
               "types" : [ "administrative_area_level_2", "political" ]
            },
            {
               "long_name" : "State of Paraná",
               "short_name" : "PR",
               "types" : [ "administrative_area_level_1", "political" ]
            },
            {
               "long_name" : "Brazil",
               "short_name" : "BR",
               "types" : [ "country", "political" ]
            }
         ],
         "formatted_address" : "Boa Vista, Curitiba - State of Paraná, Brazil",
         "geometry" : {
            "bounds" : {
               "northeast" : {
                  "lat" : -25.346995,
                  "lng" : -49.1914303
               },
               "southwest" : {
                  "lat" : -25.4313697,
                  "lng" : -49.2815916
               }
            },
            "location" : {
               "lat" : -25.3886823,
               "lng" : -49.2334685
            },
            "location_type" : "APPROXIMATE",
            "viewport" : {
               "northeast" : {
                  "lat" : -25.346995,
                  "lng" : -49.1914303
               },
               "southwest" : {
                  "lat" : -25.4313697,
                  "lng" : -49.2815916
               }
            }
         },
         "place_id" : "ChIJ4yXhiYjm3JQRib7FMdA38u0",
         "types" : [ "administrative_area_level_4", "political" ]
      },
      {
         "address_components" : [
            {
               "long_name" : "Curitiba",
               "short_name" : "Curitiba",
               "types" : [ "locality", "political" ]
            },
            {
               "long_name" : "Curitiba",
               "short_name" : "Curitiba",
               "types" : [ "administrative_area_level_2", "political" ]
            },
            {
               "long_name" : "State of Paraná",
               "short_name" : "PR",
               "types" : [ "administrative_area_level_1", "political" ]
            },
            {
               "long_name" : "Brazil",
               "short_name" : "BR",
               "types" : [ "country", "political" ]
            }
         ],
         "formatted_address" : "Curitiba, State of Paraná, Brazil",
         "geometry" : {
            "bounds" : {
               "northeast" : {
                  "lat" : -25.346995,
                  "lng" : -49.1897635
               },
               "southwest" : {
                  "lat" : -25.6432382,
                  "lng" : -49.38983289999999
               }
            },
            "location" : {
               "lat" : -25.4289541,
               "lng" : -49.267137
            },
            "location_type" : "APPROXIMATE",
            "viewport" : {
               "northeast" : {
                  "lat" : -25.346995,
                  "lng" : -49.1897635
               },
               "southwest" : {
                  "lat" : -25.6432382,
                  "lng" : -49.38983289999999
               }
            }
         },
         "place_id" : "ChIJ3bPNUVPj3JQRCejLuqVrL20",
         "types" : [ "locality", "political" ]
      },
      {
         "address_components" : [
            {
               "long_name" : "Curitiba",
               "short_name" : "Curitiba",
               "types" : [ "administrative_area_level_2", "political" ]
            },
            {
               "long_name" : "State of Paraná",
               "short_name" : "PR",
               "types" : [ "administrative_area_level_1", "political" ]
            },
            {
               "long_name" : "Brazil",
               "short_name" : "BR",
               "types" : [ "country", "political" ]
            }
         ],
         "formatted_address" : "Curitiba - State of Paraná, Brazil",
         "geometry" : {
            "bounds" : {
               "northeast" : {
                  "lat" : -25.346736,
                  "lng" : -49.18522489999999
               },
               "southwest" : {
                  "lat" : -25.6453862,
                  "lng" : -49.38933859999999
               }
            },
            "location" : {
               "lat" : -25.4808762,
               "lng" : -49.3044253
            },
            "location_type" : "APPROXIMATE",
            "viewport" : {
               "northeast" : {
                  "lat" : -25.346736,
                  "lng" : -49.18522489999999
               },
               "southwest" : {
                  "lat" : -25.6453862,
                  "lng" : -49.38933859999999
               }
            }
         },
         "place_id" : "ChIJ8Q8J_PXj3JQRR7crCbCDejw",
         "types" : [ "administrative_area_level_2", "political" ]
      },
      {
         "address_components" : [
            {
               "long_name" : "State of Paraná",
               "short_name" : "PR",
               "types" : [ "administrative_area_level_1", "political" ]
            },
            {
               "long_name" : "Brazil",
               "short_name" : "BR",
               "types" : [ "country", "political" ]
            }
         ],
         "formatted_address" : "State of Paraná, Brazil",
         "geometry" : {
            "bounds" : {
               "northeast" : {
                  "lat" : -22.5166644,
                  "lng" : -48.0235303
               },
               "southwest" : {
                  "lat" : -26.7172983,
                  "lng" : -54.6192979
               }
            },
            "location" : {
               "lat" : -25.2520888,
               "lng" : -52.0215415
            },
            "location_type" : "APPROXIMATE",
            "viewport" : {
               "northeast" : {
                  "lat" : -22.5166644,
                  "lng" : -48.0235303
               },
               "southwest" : {
                  "lat" : -26.7172983,
                  "lng" : -54.6192979
               }
            }
         },
         "place_id" : "ChIJnWK4MJQL25QRYfDOY1D9k-g",
         "types" : [ "administrative_area_level_1", "political" ]
      },
      {
         "address_components" : [
            {
               "long_name" : "Brazil",
               "short_name" : "BR",
               "types" : [ "country", "political" ]
            }
         ],
         "formatted_address" : "Brazil",
         "geometry" : {
            "bounds" : {
               "northeast" : {
                  "lat" : 5.2717863,
                  "lng" : -28.650543
               },
               "southwest" : {
                  "lat" : -34.0891,
                  "lng" : -73.9828169
               }
            },
            "location" : {
               "lat" : -14.235004,
               "lng" : -51.92528
            },
            "location_type" : "APPROXIMATE",
            "viewport" : {
               "northeast" : {
                  "lat" : 5.2717863,
                  "lng" : -28.650543
               },
               "southwest" : {
                  "lat" : -34.0891,
                  "lng" : -73.9828169
               }
            }
         },
         "place_id" : "ChIJzyjM68dZnAARYz4p8gYVWik",
         "types" : [ "country", "political" ]
      }
   ],
   "status" : "OK"
}
