{
   "plus_code" : {
      "compound_code" : "HP8G+9W Curitiba, State of Paraná, Brazil",
      "global_code" : "586GHP8G+9W"
   },
   "results" : [
      {
         "address_components" : [
            {
               "long_name" : "100",
               "short_name" : "100",
               "types" : [ "street_number" ]
            },
            {
               "long_name" : "Rua Desembargador Westphalen",
               "short_name" : "R. Des. Westphalen",
               "types" : [ "route" ]
            },
            {
               "long_name" : "Centro",
               "short_name" : "Centro",
               "types" : [ "political", "sublocality", "sublocality_level_1" ]
            },
            {
               "long_name" : "Curitiba",
               "short_name" : "Curitiba",
               "types" : [ "administrative_area_level_2", "political" ]
            },
            {
               "long_name" : "Paraná",
               "short_name" : "PR",
               "types" : [ "administrative_area_level_1", "political" ]
            },
            {
               "long_name" : "Brazil",
               "short_name" : "BR",
               "types" : [ "country", "political" ]
            },
            {
               "long_name" : "80010-110",
               "short_name" : "80010-110",
               "types" : [ "postal_code" ]
            }
         ],
         "formatted_address" : "R. Des. Westphalen, 100 - Centro, Curitiba - PR, 80010-110, Brazil",
         "geometry" : {
            "location" : {
               "lat" : -25.4338365,
               "lng" : -49.2726635
            },
            "location_type" : "ROOFTOP",
            "viewport" : {
               "northeast" : {
                  "lat" : -25.43248751970849,
                  "lng" : -49.2713145197085
               },
               "southwest" : {
                  "lat" : -25.4351854802915,
                  "lng" : -49.2740124802915
               }
            }
         },
         "place_id" : "ChIJ_VFXoW3k3JQRrv0ajNnCeNU",
         "plus_code" : {
            "compound_code" : "HP8G+FW Curitiba, State of Paraná, Brazil",
            "global_code" : "586GHP8G+FW"
         },
         "types" : [ "street_address" ]
      },
      {
         "address_components" : [
            {
               "long_name" : "José Loureiro - 160-Jd. Mercês / Guanabara",
               "short_name" : "José Loureiro - 160-Jd. Mercês / Guanabara",
               "types" : [ "establishment", "point_of_interest", "transit_station" ]
            },
            {
               "long_name" : "Centro",
               "short_name" : "Centro",
               "types" : [ "political", "sublocality", "sublocality_level_1" ]
            },
            {
               "long_name" : "Curitiba",
               "short_name" : "Curitiba",
               "types" : [ "administrative_area_level_2", "political" ]
            },
            {
               "long_name" : "Paraná",
               "short_name" : "PR",
               "types" : [ "administrative_area_level_1", "political" ]
            },
            {
               "long_name" : "Brazil",
               "short_name" : "BR",
               "types" : [ "country", "political" ]
            },
            {
               "long_name" : "82860-140",
               "short_name" : "82860-140",
               "types" : [ "postal_code" ]
            }
         ],
         "formatted_address" : "José Loureiro - 160-Jd. Mercês / Guanabara - Centro, Curitiba - PR, 82860-140, Brazil",
         "geometry" : {
            "location" : {
               "lat" : -25.4335402,
               "lng" : -49.2723503
            },
            "location_type" : "GEOMETRIC_CENTER",
            "viewport" : {
               "northeast" : {
                  "lat" : -25.4321912197085,
                  "lng" : -49.2710013197085
               },
               "southwest" : {
                  "lat" : -25.4348891802915,
                  "lng" : -49.2736992802915
               }
            }
         },
         "place_id" : "ChIJxX5Ap23k3JQRQI2YYzHbehk",
         "plus_code" : {
            "compound_code" : "HP8H+H3 Curitiba, State of Paraná, Brazil",
            "global_code" : "586GHP8H+H3"
         },
         "types" : [ "establishment", "point_of_interest", "transit_station" ]
      },
      {
         "address_components" : [
            {
               "long_name" : "106",
               "short_name" : "106",
               "types" : [ "street_number" ]
            },
            {
               "long_name" : "Rua Desembargador Westphalen",
               "short_name" : "R. Des. Westphalen",
               "types" : [ "route" ]
            },
            {
               "long_name" : "Centro",
               "short_name" : "Centro",
               "types" : [ "political", "sublocality", "sublocality_level_1" ]
            },
            {
               "long_name" : "Curitiba",
               "short_name" : "Curitiba",
               "types" : [ "administrative_area_level_2", "political" ]
            },
            {
               "long_name" : "Paraná",
               "short_name" : "PR",
               "types" : [ "administrative_area_level_1", "political" ]
            },
            {
               "long_name" : "Brazil",
               "short_name" : "BR",
               "types" : [ "country", "political" ]
            },
            {
               "long_name" : "80010-110",
               "short_name" : "80010-110",
               "types" : [ "postal_code" ]
            }
         ],
         "formatted_address" : "R. Des. Westphalen, 106 - Centro, Curitiba - PR, 80010-110, Brazil",
         "geometry" : {
            "location" : {
               "lat" : -25.4338778,
               "lng" : -49.2723692
            },
            "location_type" : "RANGE_INTERPOLATED",
            "viewport" : {
               "northeast" : {
                  "lat" : -25.43252881970849,
                  "lng" : -49.2710202197085
               },
               "southwest" : {
                  "lat" : -25.4352267802915,
                  "lng" : -49.2737181802915
               }
            }
         },
         "place_id" : "EkJSLiBEZXMuIFdlc3RwaGFsZW4sIDEwNiAtIENlbnRybywgQ3VyaXRpYmEgLSBQUiwgODAwMTAtMTEwLCBCcmF6aWwiGhIYChQKEgmjCdOkbeTclBHMd3gxzoC21RBq",
         "types" : [ "street_address" ]
      },
      {
         "address_components" : [
            {
               "long_name" : "165-7",
               "short_name" : "165-7",
               "types" : [ "street_number" ]
            },
            {
               "long_name" : "Rua Voluntários da Pátria",
               "short_name" : "R. Voluntários da Pátria",
               "types" : [ "route" ]
            },
            {
               "long_name" : "Centro",
               "short_name" : "Centro",
               "types" : [ "political", "sublocality", "sublocality_level_1" ]
            },
            {
               "long_name" : "Curitiba",
               "short_name" : "Curitiba",
               "types" : [ "administrative_area_level_2", "political" ]
            },
            {
               "long_name" : "Paraná",
               "short_name" : "PR",
               "types" : [ "administrative_area_level_1", "political" ]
            },
            {
               "long_name" : "Brazil",
               "short_name" : "BR",
               "types" : [ "country", "political" ]
            },
            {
               "long_name" : "82860-140",
               "short_name" : "82860-140",
               "types" : [ "postal_code" ]
            }
         ],
         "formatted_address" : "R. Voluntários da Pátria, 165-7 - Centro, Curitiba - PR, 82860-140, Brazil",
         "geometry" : {
            "bounds" : {
               "northeast" : {
                  "lat" : -25.4336906,
                  "lng" : -49.2726586
               },
               "southwest" : {
                  "lat" : -25.4346656,
                  "lng" : -49.2737717
               }
            },
            "location" : {
               "lat" : -25.4341741,
               "lng" : -49.2732109
            },
            "location_type" : "GEOMETRIC_CENTER",
            "viewport" : {
               "northeast" : {
                  "lat" : -25.4328291197085,
                  "lng" : -49.2718661697085
               },
               "southwest" : {
                  "lat" : -25.4355270802915,
                  "lng" : -49.2745641302915
               }
            }
         },
         "place_id" : "ChIJDxMDm23k3JQR5i3onFiplPE",
         "types" : [ "route" ]
      },
      {
         "address_components" : [
            {
               "long_name" : "Centro",
               "short_name" : "Centro",
               "types" : [ "political", "sublocality", "sublocality_level_1" ]
            },
            {
               "long_name" : "Curitiba",
               "short_name" : "Curitiba",
               "types" : [ "administrative_area_level_2", "political" ]
            },
            {
               "long_name" : "State of Paraná",
               "short_name" : "PR",
               "types" : [ "administrative_area_level_1", "political" ]
            },
            {
               "long_name" : "Brazil",
               "short_name" : "BR",
               "types" : [ "country", "political" ]
            },
            {
               "long_name" : "82590-300",
               "short_name" : "82590-300",
               "types" : [ "postal_code" ]
            }
         ],
         "formatted_address" : "Centro, Curitiba - State of Paraná, 80010, Brazil",
         "geometry" : {
            "bounds" : {
               "northeast" : {
                  "lat" : -25.428575,
                  "lng" : -49.2622988
               },
               "southwest" : {
                  "lat" : -25.4399049,
                  "lng" : -49.2761605
               }
            },
            "location" : {
               "lat" : -25.4355706,
               "lng" : -49.2676689
            },
            "location_type" : "APPROXIMATE",
            "viewport" : {
               "northeast" : {
                  "lat" : -25.428575,
                  "lng" : -49.2622988
               },
               "southwest" : {
                  "lat" : -25.4399049,
                  "lng" : -49.2761605
               }
            }
         },
         "place_id" : "ChIJGU-pCGzk3JQRTpquC-IWr60",
         "types" : [ "postal_code", "postal_code_prefix" ]
      },
      {
         "address_components" : [
            {
               "long_name" : "Centro",
               "short_name" : "Centro",
               "types" : [ "political", "sublocality", "sublocality_level_1" ]
            },
            {
               "long_name" : "Curitiba",
               "short_name" : "Curitiba",
               "types" : [ "administrative_area_level_2", "political" ]
            },
            {
               "long_name" : "State of Paraná",
               "short_name" : "PR",
               "types" : [ "administrative_area_level_1", "political" ]
            },
            {
               "long_name" : "Brazil",
               "short_name" : "BR",
               "types" : [ "country", "political" ]
            }
         ],
         "formatted_address" : "Centro, Curitiba - State of Paraná, Brazil",
         "geometry" : {
            "bounds" : {
               "northeast" : {
                  "lat" : -25.422564,
                  "lng" : -49.2557553
               },
               "southwest" : {
                  "lat" : -25.4417927,
                  "lng" : -49.28602679999999
               }
            },
            "location" : {
               "lat" : -25.4351674,
               "lng" : -49.2754909
            },
            "location_type" : "APPROXIMATE",
            "viewport" : {
               "northeast" : {
                  "lat" : -25.422564,
                  "lng" : -49.2557553
               },
               "southwest" : {
                  "lat" : -25.4417927,
                  "lng" : -49.28602679999999
               }
            }
         },
         "place_id" : "ChIJG2tsRGzk3JQRexQH3bDlDQ0",
         "types" : [ "political", "sublocality", "sublocality_level_1" ]
      },
      {
         "address_components" : [
            {
               "long_name" : "82860-140",
               "short_name" : "82860-140",
               "types" : [ "postal_code" ]
            },
            {
               "long_name" : "Atuba",
               "short_name" : "Atuba",
               "types" : [ "political", "sublocality", "sublocality_level_1" ]
            },
            {
               "long_name" : "Curitiba",
               "short_name" : "Curitiba",
               "types" : [ "administrative_area_level_2", "political" ]
            },
            {
               "long_name" : "State of Paraná",
               "short_name" : "PR",
               "types" : [ "administrative_area_level_1", "political" ]
            },
            {
               "long_name" : "Brazil",
               "short_name" : "BR",
               "types" : [ "country", "political" ]
            }
         ],
         "formatted_address" : "Atuba, Curitiba - State of Paraná, 82860-140, Brazil",
         "geometry" : {
            "bounds" : {
               "northeast" : {
                  "lat" : -25.3817292,
                  "lng" : -49.1980228
               },
               "southwest" : {
                  "lat" : -25.5162639,
                  "lng" : -49.30062179999999
               }
            },
            "location" : {
               "lat" : -25.3851086,
               "lng" : -49.2004905
            },
            "location_type" : "APPROXIMATE",
            "viewport" : {
               "northeast" : {
                  "lat" : -25.3817292,
                  "lng" : -49.1980228
               },
               "southwest" : {
                  "lat" : -25.5162639,
                  "lng" : -49.30062179999999
               }
            }
         },
         "place_id" : "ChIJF-SdAKvo3JQR5WVggPIj3zE",
         "types" : [ "postal_code" ]
      },
      {
         "address_components" : [
            {
               "long_name" : "Matriz",
               "short_name" : "Matriz",
               "types" : [ "administrative_area_level_4", "political" ]
            },
            {
               "long_name" : "Curitiba",
               "short_name" : "Curitiba",
               "types" : [ "administrative_area_level_2", "political" ]
            },
            {
               "long_name" : "State of Paraná",
               "short_name" : "PR",
               "types" : [ "administrative_area_level_1", "political" ]
            },
            {
               "long_name" : "Brazil",
               "short_name" : "BR",
               "types" : [ "country", "political" ]
            }
         ],
         "formatted_address" : "Matriz, Curitiba - State of Paraná, Brazil",
         "geometry" : {
            "bounds" : {
               "northeast" : {
                  "lat" : -25.3928639,
                  "lng" : -49.2184679
               },
               "southwest" : {
                  "lat" : -25.4688678,
                  "lng" : -49.3192934
               }
            },
            "location" : {
               "lat" : -25.4217847,
               "lng" : -49.2740045
            },
            "location_type" : "APPROXIMATE",
            "viewport" : {
               "northeast" : {
                  "lat" : -25.3928639,
                  "lng" : -49.2184679
               },
               "southwest" : {
                  "lat" : -25.4688678,
                  "lng" : -49.3192934
               }
            }
         },
         "place_id" : "ChIJSdL-QBTk3JQRTa4Zsr5CKw0",
         "types" : [ "administrative_area_level_4", "political" ]
      },
      {
         "address_components" : [
            {
               "long_name" : "Curitiba",
               "short_name" : "Curitiba",
               "types" : [ "locality", "political" ]
            },
            {
               "long_name" : "Curitiba",
               "short_name" : "Curitiba",
               "types" : [ "administrative_area_level_2", "political" ]
            },
            {
               "long_name" : "State of Paraná",
               "short_name" : "PR",
               "types" : [ "administrative_area_level_1", "political" ]
            },
            {
               "long_name" : "Brazil",
               "short_name" : "BR",
               "types" : [ "country", "political" ]
            }
         ],
         "formatted_address" : "Curitiba, State of Paraná, Brazil",
         "geometry" : {
            "bounds" : {
               "northeast" : {
                  "lat" : -25.346995,
                  "lng" : -49.1897635
               },
               "southwest" : {
                  "lat" : -25.6432382,
                  "lng" : -49.38983289999999
               }
            },
            "location" : {
               "lat" : -25.4289541,
               "lng" : -49.267137
            },
            "location_type" : "APPROXIMATE",
            "viewport" : {
               "northeast" : {
                  "lat" : -25.346995,
                  "lng" : -49.1897635
               },
               "southwest" : {
                  "lat" : -25.6432382,
                  "lng" : -49.38983289999999
               }
            }
         },
         "place_id" : "ChIJ3bPNUVPj3JQRCejLuqVrL20",
         "types" : [ "locality", "political" ]
      },
      {
         "address_components" : [
            {
               "long_name" : "Curitiba",
               "short_name" : "Curitiba",
               "types" : [ "administrative_area_level_2", "political" ]
            },
            {
               "long_name" : "State of Paraná",
               "short_name" : "PR",
               "types" : [ "administrative_area_level_1", "political" ]
            },
            {
               "long_name" : "Brazil",
               "short_name" : "BR",
               "types" : [ "country", "political" ]
            }
         ],
         "formatted_address" : "Curitiba - State of Paraná, Brazil",
         "geometry" : {
            "bounds" : {
               "northeast" : {
                  "lat" : -25.346736,
                  "lng" : -49.18522489999999
               },
               "southwest" : {
                  "lat" : -25.6453862,
                  "lng" : -49.38933859999999
               }
            },
            "location" : {
               "lat" : -25.4808762,
               "lng" : -49.3044253
            },
            "location_type" : "APPROXIMATE",
            "viewport" : {
               "northeast" : {
                  "lat" : -25.346736,
                  "lng" : -49.18522489999999
               },
               "southwest" : {
                  "lat" : -25.6453862,
                  "lng" : -49.38933859999999
               }
            }
         },
         "place_id" : "ChIJ8Q8J_PXj3JQRR7crCbCDejw",
         "types" : [ "administrative_area_level_2", "political" ]
      },
      {
         "address_components" : [
            {
               "long_name" : "State of Paraná",
               "short_name" : "PR",
               "types" : [ "administrative_area_level_1", "political" ]
            },
            {
               "long_name" : "Brazil",
               "short_name" : "BR",
               "types" : [ "country", "political" ]
            }
         ],
         "formatted_address" : "State of Paraná, Brazil",
         "geometry" : {
            "bounds" : {
               "northeast" : {
                  "lat" : -22.5166644,
                  "lng" : -48.0235303
               },
               "southwest" : {
                  "lat" : -26.7172983,
                  "lng" : -54.6192979
               }
            },
            "location" : {
               "lat" : -25.2520888,
               "lng" : -52.0215415
            },
            "location_type" : "APPROXIMATE",
            "viewport" : {
               "northeast" : {
                  "lat" : -22.5166644,
                  "lng" : -48.0235303
               },
               "southwest" : {
                  "lat" : -26.7172983,
                  "lng" : -54.6192979
               }
            }
         },
         "place_id" : "ChIJnWK4MJQL25QRYfDOY1D9k-g",
         "types" : [ "administrative_area_level_1", "political" ]
      },
      {
         "address_components" : [
            {
               "long_name" : "Brazil",
               "short_name" : "BR",
               "types" : [ "country", "political" ]
            }
         ],
         "formatted_address" : "Brazil",
         "geometry" : {
            "bounds" : {
               "northeast" : {
                  "lat" : 5.2717863,
                  "lng" : -28.650543
               },
               "southwest" : {
                  "lat" : -34.0891,
                  "lng" : -73.9828169
               }
            },
            "location" : {
               "lat" : -14.235004,
               "lng" : -51.92528
            },
            "location_type" : "APPROXIMATE",
            "viewport" : {
               "northeast" : {
                  "lat" : 5.2717863,
                  "lng" : -28.650543
               },
               "southwest" : {
                  "lat" : -34.0891,
                  "lng" : -73.9828169
               }
            }
         },
         "place_id" : "ChIJzyjM68dZnAARYz4p8gYVWik",
         "types" : [ "country", "political" ]
      }
   ],
   "status" : "OK"
}
