{
   "plus_code" : {
      "compound_code" : "HPF8+VG Curitiba, State of Paraná, Brazil",
      "global_code" : "586GHPF8+VG"
   },
   "results" : [
      {
         "address_components" : [
            {
               "long_name" : "364",
               "short_name" : "364",
               "types" : [ "street_number" ]
            },
            {
               "long_name" : "Rua Padre Agostinho",
               "short_name" : "R. Padre Agostinho",
               "types" : [ "route" ]
            },
            {
               "long_name" : "Mercês",
               "short_name" : "Mercês",
               "types" : [ "political", "sublocality", "sublocality_level_1" ]
            },
            {
               "long_name" : "Curitiba",
               "short_name" : "Curitiba",
               "types" : [ "administrative_area_level_2", "political" ]
            },
            {
               "long_name" : "Paraná",
               "short_name" : "PR",
               "types" : [ "administrative_area_level_1", "political" ]
            },
            {
               "long_name" : "Brazil",
               "short_name" : "BR",
               "types" : [ "country", "political" ]
            },
            {
               "long_name" : "80410-020",
               "short_name" : "80410-020",
               "types" : [ "postal_code" ]
            }
         ],
         "formatted_address" : "R. Padre Agostinho, 364 - Mercês, Curitiba - PR, 80410-020, Brazil",
         "geometry" : {
            "location" : {
               "lat" : -25.425204,
               "lng" : -49.283714
            },
            "location_type" : "ROOFTOP",
            "viewport" : {
               "northeast" : {
                  "lat" : -25.42385501970849,
                  "lng" : -49.2823650197085
               },
               "southwest" : {
                  "lat" : -25.4265529802915,
                  "lng" : -49.2850629802915
               }
            }
         },
         "place_id" : "ChIJD-_kBgjk3JQRAesotyQw72g",
         "plus_code" : {
            "compound_code" : "HPF8+WG Curitiba, State of Paraná, Brazil",
            "global_code" : "586GHPF8+WG"
         },
         "types" : [ "street_address" ]
      },
      {
         "address_components" : [
            {
               "long_name" : "364",
               "short_name" : "364",
               "types" : [ "street_number" ]
            },
            {
               "long_name" : "Rua Padre Agostinho",
               "short_name" : "R. Padre Agostinho",
               "types" : [ "route" ]
            },
            {
               "long_name" : "Mercês",
               "short_name" : "Mercês",
               "types" : [ "political", "sublocality", "sublocality_level_1" ]
            },
            {
               "long_name" : "Curitiba",
               "short_name" : "Curitiba",
               "types" : [ "administrative_area_level_2", "political" ]
            },
            {
               "long_name" : "Paraná",
               "short_name" : "PR",
               "types" : [ "administrative_area_level_1", "political" ]
            },
            {
               "long_name" : "Brazil",
               "short_name" : "BR",
               "types" : [ "country", "political" ]
            },
            {
               "long_name" : "80410-020",
               "short_name" : "80410-020",
               "types" : [ "postal_code" ]
            }
         ],
         "formatted_address" : "R. Padre Agostinho, 364 - Mercês, Curitiba - PR, 80410-020, Brazil",
         "geometry" : {
            "location" : {
               "lat" : -25.425204,
               "lng" : -49.283714
            },
            "location_type" : "ROOFTOP",
            "viewport" : {
               "northeast" : {
                  "lat" : -25.42385501970849,
                  "lng" : -49.2823650197085
               },
               "southwest" : {
                  "lat" : -25.4265529802915,
                  "lng" : -49.2850629802915
               }
            }
         },
         "place_id" : "ChIJ9Sz1-_fj3JQRwlMo-TF5wCY",
         "plus_code" : {
            "compound_code" : "HPF8+WG Curitiba, State of Paraná, Brazil",
            "global_code" : "586GHPF8+WG"
         },
         "types" : [ "establishment", "general_contractor", "point_of_interest" ]
      },
      {
         "address_components" : [
            {
               "long_name" : "385",
               "short_name" : "385",
               "types" : [ "street_number" ]
            },
            {
               "long_name" : "Rua Padre Agostinho",
               "short_name" : "R. Padre Agostinho",
               "types" : [ "route" ]
            },
            {
               "long_name" : "São Francisco",
               "short_name" : "São Francisco",
               "types" : [ "political", "sublocality", "sublocality_level_1" ]
            },
            {
               "long_name" : "Curitiba",
               "short_name" : "Curitiba",
               "types" : [ "administrative_area_level_2", "political" ]
            },
            {
               "long_name" : "Paraná",
               "short_name" : "PR",
               "types" : [ "administrative_area_level_1", "political" ]
            },
            {
               "long_name" : "Brazil",
               "short_name" : "BR",
               "types" : [ "country", "political" ]
            },
            {
               "long_name" : "80430-050",
               "short_name" : "80430-050",
               "types" : [ "postal_code" ]
            }
         ],
         "formatted_address" : "R. Padre Agostinho, 385 - São Francisco, Curitiba - PR, 80430-050, Brazil",
         "geometry" : {
            "location" : {
               "lat" : -25.4252896,
               "lng" : -49.2836373
            },
            "location_type" : "RANGE_INTERPOLATED",
            "viewport" : {
               "northeast" : {
                  "lat" : -25.4239406197085,
                  "lng" : -49.28228831970851
               },
               "southwest" : {
                  "lat" : -25.4266385802915,
                  "lng" : -49.28498628029151
               }
            }
         },
         "place_id" : "EkpSLiBQYWRyZSBBZ29zdGluaG8sIDM4NSAtIFPDo28gRnJhbmNpc2NvLCBDdXJpdGliYSAtIFBSLCA4MDQzMC0wNTAsIEJyYXppbCIbEhkKFAoSCX_iJwII5NyUEaWl-_qVGTL-EIED",
         "types" : [ "street_address" ]
      },
      {
         "address_components" : [
            {
               "long_name" : "352-480",
               "short_name" : "352-480",
               "types" : [ "street_number" ]
            },
            {
               "long_name" : "Rua Padre Agostinho",
               "short_name" : "R. Padre Agostinho",
               "types" : [ "route" ]
            },
            {
               "long_name" : "São Francisco",
               "short_name" : "São Francisco",
               "types" : [ "political", "sublocality", "sublocality_level_1" ]
            },
            {
               "long_name" : "Curitiba",
               "short_name" : "Curitiba",
               "types" : [ "administrative_area_level_2", "political" ]
            },
            {
               "long_name" : "Paraná",
               "short_name" : "PR",
               "types" : [ "administrative_area_level_1", "political" ]
            },
            {
               "long_name" : "Brazil",
               "short_name" : "BR",
               "types" : [ "country", "political" ]
            },
            {
               "long_name" : "80430-050",
               "short_name" : "80430-050",
               "types" : [ "postal_code" ]
            }
         ],
         "formatted_address" : "R. Padre Agostinho, 352-480 - São Francisco, Curitiba - PR, 80430-050, Brazil",
         "geometry" : {
            "bounds" : {
               "northeast" : {
                  "lat" : -25.425217,
                  "lng" : -49.2834561
               },
               "southwest" : {
                  "lat" : -25.4256819,
                  "lng" : -49.2846173
               }
            },
            "location" : {
               "lat" : -25.4254496,
               "lng" : -49.2840366
            },
            "location_type" : "GEOMETRIC_CENTER",
            "viewport" : {
               "northeast" : {
                  "lat" : -25.4241004697085,
                  "lng" : -49.2826877197085
               },
               "southwest" : {
                  "lat" : -25.4267984302915,
                  "lng" : -49.2853856802915
               }
            }
         },
         "place_id" : "ChIJf-InAgjk3JQRpKX7-pUZMv4",
         "types" : [ "route" ]
      },
      {
         "address_components" : [
            {
               "long_name" : "80410-020",
               "short_name" : "80410-020",
               "types" : [ "postal_code" ]
            },
            {
               "long_name" : "São Francisco",
               "short_name" : "São Francisco",
               "types" : [ "political", "sublocality", "sublocality_level_1" ]
            },
            {
               "long_name" : "Curitiba",
               "short_name" : "Curitiba",
               "types" : [ "administrative_area_level_2", "political" ]
            },
            {
               "long_name" : "State of Paraná",
               "short_name" : "PR",
               "types" : [ "administrative_area_level_1", "political" ]
            },
            {
               "long_name" : "Brazil",
               "short_name" : "BR",
               "types" : [ "country", "political" ]
            }
         ],
         "formatted_address" : "São Francisco, Curitiba - State of Paraná, 80410-020, Brazil",
         "geometry" : {
            "bounds" : {
               "northeast" : {
                  "lat" : -25.4226777,
                  "lng" : -49.2803097
               },
               "southwest" : {
                  "lat" : -25.4259323,
                  "lng" : -49.28467329999999
               }
            },
            "location" : {
               "lat" : -25.4249455,
               "lng" : -49.2825588
            },
            "location_type" : "APPROXIMATE",
            "viewport" : {
               "northeast" : {
                  "lat" : -25.4226777,
                  "lng" : -49.2803097
               },
               "southwest" : {
                  "lat" : -25.4259323,
                  "lng" : -49.28467329999999
               }
            }
         },
         "place_id" : "ChIJdRA7LAbk3JQRrPC87IoJQdI",
         "types" : [ "postal_code" ]
      },
      {
         "address_components" : [
            {
               "long_name" : "80410",
               "short_name" : "80410",
               "types" : [ "postal_code", "postal_code_prefix" ]
            },
            {
               "long_name" : "Matriz",
               "short_name" : "Matriz",
               "types" : [ "administrative_area_level_4", "political" ]
            },
            {
               "long_name" : "Curitiba",
               "short_name" : "Curitiba",
               "types" : [ "administrative_area_level_2", "political" ]
            },
            {
               "long_name" : "State of Paraná",
               "short_name" : "PR",
               "types" : [ "administrative_area_level_1", "political" ]
            },
            {
               "long_name" : "Brazil",
               "short_name" : "BR",
               "types" : [ "country", "political" ]
            }
         ],
         "formatted_address" : "Matriz, Curitiba - State of Paraná, 80410, Brazil",
         "geometry" : {
            "bounds" : {
               "northeast" : {
                  "lat" : -25.4243901,
                  "lng" : -49.2758433
               },
               "southwest" : {
                  "lat" : -25.4359976,
                  "lng" : -49.284805
               }
            },
            "location" : {
               "lat" : -25.430016,
               "lng" : -49.28034090000001
            },
            "location_type" : "APPROXIMATE",
            "viewport" : {
               "northeast" : {
                  "lat" : -25.4243901,
                  "lng" : -49.2758433
               },
               "southwest" : {
                  "lat" : -25.4359976,
                  "lng" : -49.284805
               }
            }
         },
         "place_id" : "ChIJA2WGlQvk3JQRLhFEdc_Qg0U",
         "types" : [ "postal_code", "postal_code_prefix" ]
      },
      {
         "address_components" : [
            {
               "long_name" : "Mercês",
               "short_name" : "Mercês",
               "types" : [ "political", "sublocality", "sublocality_level_1" ]
            },
            {
               "long_name" : "Curitiba",
               "short_name" : "Curitiba",
               "types" : [ "administrative_area_level_2", "political" ]
            },
            {
               "long_name" : "State of Paraná",
               "short_name" : "PR",
               "types" : [ "administrative_area_level_1", "political" ]
            },
            {
               "long_name" : "Brazil",
               "short_name" : "BR",
               "types" : [ "country", "political" ]
            }
         ],
         "formatted_address" : "Mercês, Curitiba - State of Paraná, Brazil",
         "geometry" : {
            "bounds" : {
               "northeast" : {
                  "lat" : -25.4142271,
                  "lng" : -49.2791773
               },
               "southwest" : {
                  "lat" : -25.4306924,
                  "lng" : -49.30881369999999
               }
            },
            "location" : {
               "lat" : -25.4220894,
               "lng" : -49.2918813
            },
            "location_type" : "APPROXIMATE",
            "viewport" : {
               "northeast" : {
                  "lat" : -25.4142271,
                  "lng" : -49.2791773
               },
               "southwest" : {
                  "lat" : -25.4306924,
                  "lng" : -49.30881369999999
               }
            }
         },
         "place_id" : "ChIJlVV3tfzj3JQRQZdn8x7IoIw",
         "types" : [ "political", "sublocality", "sublocality_level_1" ]
      },
      {
         "address_components" : [
            {
               "long_name" : "Matriz",
               "short_name" : "Matriz",
               "types" : [ "administrative_area_level_4", "political" ]
            },
            {
               "long_name" : "Curitiba",
               "short_name" : "Curitiba",
               "types" : [ "administrative_area_level_2", "political" ]
            },
            {
               "long_name" : "State of Paraná",
               "short_name" : "PR",
               "types" : [ "administrative_area_level_1", "political" ]
            },
            {
               "long_name" : "Brazil",
               "short_name" : "BR",
               "types" : [ "country", "political" ]
            }
         ],
         "formatted_address" : "Matriz, Curitiba - State of Paraná, Brazil",
         "geometry" : {
            "bounds" : {
               "northeast" : {
                  "lat" : -25.3928639,
                  "lng" : -49.2184679
               },
               "southwest" : {
                  "lat" : -25.4688678,
                  "lng" : -49.3192934
               }
            },
            "location" : {
               "lat" : -25.4217847,
               "lng" : -49.2740045
            },
            "location_type" : "APPROXIMATE",
            "viewport" : {
               "northeast" : {
                  "lat" : -25.3928639,
                  "lng" : -49.2184679
               },
               "southwest" : {
                  "lat" : -25.4688678,
                  "lng" : -49.3192934
               }
            }
         },
         "place_id" : "ChIJSdL-QBTk3JQRTa4Zsr5CKw0",
         "types" : [ "administrative_area_level_4", "political" ]
      },
      {
         "address_components" : [
            {
               "long_name" : "Curitiba",
               "short_name" : "Curitiba",
               "types" : [ "locality", "political" ]
            },
            {
               "long_name" : "Curitiba",
               "short_name" : "Curitiba",
               "types" : [ "administrative_area_level_2", "political" ]
            },
            {
               "long_name" : "State of Paraná",
               "short_name" : "PR",
               "types" : [ "administrative_area_level_1", "political" ]
            },
            {
               "long_name" : "Brazil",
               "short_name" : "BR",
               "types" : [ "country", "political" ]
            }
         ],
         "formatted_address" : "Curitiba, State of Paraná, Brazil",
         "geometry" : {
            "bounds" : {
               "northeast" : {
                  "lat" : -25.346995,
                  "lng" : -49.1897635
               },
               "southwest" : {
                  "lat" : -25.6432382,
                  "lng" : -49.38983289999999
               }
            },
            "location" : {
               "lat" : -25.4289541,
               "lng" : -49.267137
            },
            "location_type" : "APPROXIMATE",
            "viewport" : {
               "northeast" : {
                  "lat" : -25.346995,
                  "lng" : -49.1897635
               },
               "southwest" : {
                  "lat" : -25.6432382,
                  "lng" : -49.38983289999999
               }
            }
         },
         "place_id" : "ChIJ3bPNUVPj3JQRCejLuqVrL20",
         "types" : [ "locality", "political" ]
      },
      {
         "address_components" : [
            {
               "long_name" : "Curitiba",
               "short_name" : "Curitiba",
               "types" : [ "administrative_area_level_2", "political" ]
            },
            {
               "long_name" : "State of Paraná",
               "short_name" : "PR",
               "types" : [ "administrative_area_level_1", "political" ]
            },
            {
               "long_name" : "Brazil",
               "short_name" : "BR",
               "types" : [ "country", "political" ]
            }
         ],
         "formatted_address" : "Curitiba - State of Paraná, Brazil",
         "geometry" : {
            "bounds" : {
               "northeast" : {
                  "lat" : -25.346736,
                  "lng" : -49.18522489999999
               },
               "southwest" : {
                  "lat" : -25.6453862,
                  "lng" : -49.38933859999999
               }
            },
            "location" : {
               "lat" : -25.4808762,
               "lng" : -49.3044253
            },
            "location_type" : "APPROXIMATE",
            "viewport" : {
               "northeast" : {
                  "lat" : -25.346736,
                  "lng" : -49.18522489999999
               },
               "southwest" : {
                  "lat" : -25.6453862,
                  "lng" : -49.38933859999999
               }
            }
         },
         "place_id" : "ChIJ8Q8J_PXj3JQRR7crCbCDejw",
         "types" : [ "administrative_area_level_2", "political" ]
      },
      {
         "address_components" : [
            {
               "long_name" : "State of Paraná",
               "short_name" : "PR",
               "types" : [ "administrative_area_level_1", "political" ]
            },
            {
               "long_name" : "Brazil",
               "short_name" : "BR",
               "types" : [ "country", "political" ]
            }
         ],
         "formatted_address" : "State of Paraná, Brazil",
         "geometry" : {
            "bounds" : {
               "northeast" : {
                  "lat" : -22.5166644,
                  "lng" : -48.0235303
               },
               "southwest" : {
                  "lat" : -26.7172983,
                  "lng" : -54.6192979
               }
            },
            "location" : {
               "lat" : -25.2520888,
               "lng" : -52.0215415
            },
            "location_type" : "APPROXIMATE",
            "viewport" : {
               "northeast" : {
                  "lat" : -22.5166644,
                  "lng" : -48.0235303
               },
               "southwest" : {
                  "lat" : -26.7172983,
                  "lng" : -54.6192979
               }
            }
         },
         "place_id" : "ChIJnWK4MJQL25QRYfDOY1D9k-g",
         "types" : [ "administrative_area_level_1", "political" ]
      },
      {
         "address_components" : [
            {
               "long_name" : "Brazil",
               "short_name" : "BR",
               "types" : [ "country", "political" ]
            }
         ],
         "formatted_address" : "Brazil",
         "geometry" : {
            "bounds" : {
               "northeast" : {
                  "lat" : 5.2717863,
                  "lng" : -28.650543
               },
               "southwest" : {
                  "lat" : -34.0891,
                  "lng" : -73.9828169
               }
            },
            "location" : {
               "lat" : -14.235004,
               "lng" : -51.92528
            },
            "location_type" : "APPROXIMATE",
            "viewport" : {
               "northeast" : {
                  "lat" : 5.2717863,
                  "lng" : -28.650543
               },
               "southwest" : {
                  "lat" : -34.0891,
                  "lng" : -73.9828169
               }
            }
         },
         "place_id" : "ChIJzyjM68dZnAARYz4p8gYVWik",
         "types" : [ "country", "political" ]
      }
   ],
   "status" : "OK"
}
