{
   "plus_code" : {
      "compound_code" : "HPMC+5R Curitiba, State of Paraná, Brazil",
      "global_code" : "586GHPMC+5R"
   },
   "results" : [
      {
         "address_components" : [
            {
               "long_name" : "142",
               "short_name" : "142",
               "types" : [ "street_number" ]
            },
            {
               "long_name" : "Avenida Desembargador Hugo Simas",
               "short_name" : "Av. Desembargador Hugo Simas",
               "types" : [ "route" ]
            },
            {
               "long_name" : "Bom Retiro",
               "short_name" : "Bom Retiro",
               "types" : [ "political", "sublocality", "sublocality_level_1" ]
            },
            {
               "long_name" : "Curitiba",
               "short_name" : "Curitiba",
               "types" : [ "administrative_area_level_2", "political" ]
            },
            {
               "long_name" : "Paraná",
               "short_name" : "PR",
               "types" : [ "administrative_area_level_1", "political" ]
            },
            {
               "long_name" : "Brazil",
               "short_name" : "BR",
               "types" : [ "country", "political" ]
            },
            {
               "long_name" : "80520-250",
               "short_name" : "80520-250",
               "types" : [ "postal_code" ]
            }
         ],
         "formatted_address" : "Av. Desembargador Hugo Simas, 142 - Bom Retiro, Curitiba - PR, 80520-250, Brazil",
         "geometry" : {
            "location" : {
               "lat" : -25.4168893,
               "lng" : -49.2780102
            },
            "location_type" : "ROOFTOP",
            "viewport" : {
               "northeast" : {
                  "lat" : -25.41554031970849,
                  "lng" : -49.2766612197085
               },
               "southwest" : {
                  "lat" : -25.4182382802915,
                  "lng" : -49.27935918029149
               }
            }
         },
         "place_id" : "ChIJoTalwQPk3JQRnMTEtpcbZYE",
         "plus_code" : {
            "compound_code" : "HPMC+6Q Curitiba, State of Paraná, Brazil",
            "global_code" : "586GHPMC+6Q"
         },
         "types" : [ "street_address" ]
      },
      {
         "address_components" : [
            {
               "long_name" : "137",
               "short_name" : "137",
               "types" : [ "street_number" ]
            },
            {
               "long_name" : "Avenida Desembargador Hugo Simas",
               "short_name" : "Av. Desembargador Hugo Simas",
               "types" : [ "route" ]
            },
            {
               "long_name" : "São Francisco",
               "short_name" : "São Francisco",
               "types" : [ "political", "sublocality", "sublocality_level_1" ]
            },
            {
               "long_name" : "Curitiba",
               "short_name" : "Curitiba",
               "types" : [ "administrative_area_level_2", "political" ]
            },
            {
               "long_name" : "Paraná",
               "short_name" : "PR",
               "types" : [ "administrative_area_level_1", "political" ]
            },
            {
               "long_name" : "Brazil",
               "short_name" : "BR",
               "types" : [ "country", "political" ]
            },
            {
               "long_name" : "80520-250",
               "short_name" : "80520-250",
               "types" : [ "postal_code" ]
            }
         ],
         "formatted_address" : "Av. Desembargador Hugo Simas, 137 - São Francisco, Curitiba - PR, 80520-250, Brazil",
         "geometry" : {
            "location" : {
               "lat" : -25.4172079,
               "lng" : -49.2781019
            },
            "location_type" : "ROOFTOP",
            "viewport" : {
               "northeast" : {
                  "lat" : -25.4158589197085,
                  "lng" : -49.2767529197085
               },
               "southwest" : {
                  "lat" : -25.4185568802915,
                  "lng" : -49.2794508802915
               }
            }
         },
         "place_id" : "ChIJdVTp2gPk3JQRdYFQuVh4t8c",
         "plus_code" : {
            "compound_code" : "HPMC+4Q Curitiba, State of Paraná, Brazil",
            "global_code" : "586GHPMC+4Q"
         },
         "types" : [ "establishment", "place_of_worship", "point_of_interest" ]
      },
      {
         "address_components" : [
            {
               "long_name" : "137",
               "short_name" : "137",
               "types" : [ "street_number" ]
            },
            {
               "long_name" : "Avenida Desembargador Hugo Simas",
               "short_name" : "Av. Desembargador Hugo Simas",
               "types" : [ "route" ]
            },
            {
               "long_name" : "Bom Retiro",
               "short_name" : "Bom Retiro",
               "types" : [ "political", "sublocality", "sublocality_level_1" ]
            },
            {
               "long_name" : "Curitiba",
               "short_name" : "Curitiba",
               "types" : [ "administrative_area_level_2", "political" ]
            },
            {
               "long_name" : "Paraná",
               "short_name" : "PR",
               "types" : [ "administrative_area_level_1", "political" ]
            },
            {
               "long_name" : "Brazil",
               "short_name" : "BR",
               "types" : [ "country", "political" ]
            },
            {
               "long_name" : "82860-140",
               "short_name" : "82860-140",
               "types" : [ "postal_code" ]
            }
         ],
         "formatted_address" : "Av. Desembargador Hugo Simas, 137 - Bom Retiro, Curitiba - PR, 82860-140, Brazil",
         "geometry" : {
            "bounds" : {
               "northeast" : {
                  "lat" : -25.4170903,
                  "lng" : -49.2780282
               },
               "southwest" : {
                  "lat" : -25.4172763,
                  "lng" : -49.2782642
               }
            },
            "location" : {
               "lat" : -25.4171833,
               "lng" : -49.2781429
            },
            "location_type" : "ROOFTOP",
            "viewport" : {
               "northeast" : {
                  "lat" : -25.41583431970849,
                  "lng" : -49.2767972197085
               },
               "southwest" : {
                  "lat" : -25.4185322802915,
                  "lng" : -49.2794951802915
               }
            }
         },
         "place_id" : "ChIJMQmE6QPk3JQRoDnV-yB-FCE",
         "types" : [ "premise" ]
      },
      {
         "address_components" : [
            {
               "long_name" : "121",
               "short_name" : "121",
               "types" : [ "street_number" ]
            },
            {
               "long_name" : "Avenida Desembargador Hugo Simas",
               "short_name" : "Av. Desembargador Hugo Simas",
               "types" : [ "route" ]
            },
            {
               "long_name" : "Bom Retiro",
               "short_name" : "Bom Retiro",
               "types" : [ "political", "sublocality", "sublocality_level_1" ]
            },
            {
               "long_name" : "Curitiba",
               "short_name" : "Curitiba",
               "types" : [ "administrative_area_level_2", "political" ]
            },
            {
               "long_name" : "Paraná",
               "short_name" : "PR",
               "types" : [ "administrative_area_level_1", "political" ]
            },
            {
               "long_name" : "Brazil",
               "short_name" : "BR",
               "types" : [ "country", "political" ]
            },
            {
               "long_name" : "82860-140",
               "short_name" : "82860-140",
               "types" : [ "postal_code" ]
            }
         ],
         "formatted_address" : "Av. Desembargador Hugo Simas, 121 - Bom Retiro, Curitiba - PR, 82860-140, Brazil",
         "geometry" : {
            "location" : {
               "lat" : -25.4170889,
               "lng" : -49.2779828
            },
            "location_type" : "RANGE_INTERPOLATED",
            "viewport" : {
               "northeast" : {
                  "lat" : -25.4157399197085,
                  "lng" : -49.27663381970851
               },
               "southwest" : {
                  "lat" : -25.4184378802915,
                  "lng" : -49.27933178029151
               }
            }
         },
         "place_id" : "EkVBdi4gRGVzZW1iYXJnYWRvciBIdWdvIFNpbWFzLCAxMjEgLSBCb20gUmV0aXJvLCBDdXJpdGliYSAtIFBSLCBCcmF6aWwiGhIYChQKEgkdYbLDA-TclBFj60qK2q-W4hB5",
         "types" : [ "street_address" ]
      },
      {
         "address_components" : [
            {
               "long_name" : "140-170",
               "short_name" : "140-170",
               "types" : [ "street_number" ]
            },
            {
               "long_name" : "Avenida Desembargador Hugo Simas",
               "short_name" : "Av. Desembargador Hugo Simas",
               "types" : [ "route" ]
            },
            {
               "long_name" : "Bom Retiro",
               "short_name" : "Bom Retiro",
               "types" : [ "political", "sublocality", "sublocality_level_1" ]
            },
            {
               "long_name" : "Curitiba",
               "short_name" : "Curitiba",
               "types" : [ "administrative_area_level_2", "political" ]
            },
            {
               "long_name" : "Paraná",
               "short_name" : "PR",
               "types" : [ "administrative_area_level_1", "political" ]
            },
            {
               "long_name" : "Brazil",
               "short_name" : "BR",
               "types" : [ "country", "political" ]
            },
            {
               "long_name" : "82860-140",
               "short_name" : "82860-140",
               "types" : [ "postal_code" ]
            }
         ],
         "formatted_address" : "Av. Desembargador Hugo Simas, 140-170 - Bom Retiro, Curitiba - PR, 82860-140, Brazil",
         "geometry" : {
            "bounds" : {
               "northeast" : {
                  "lat" : -25.4167663,
                  "lng" : -49.2779683
               },
               "southwest" : {
                  "lat" : -25.4170964,
                  "lng" : -49.2784515
               }
            },
            "location" : {
               "lat" : -25.4169465,
               "lng" : -49.2782223
            },
            "location_type" : "GEOMETRIC_CENTER",
            "viewport" : {
               "northeast" : {
                  "lat" : -25.4155823697085,
                  "lng" : -49.2768609197085
               },
               "southwest" : {
                  "lat" : -25.4182803302915,
                  "lng" : -49.2795588802915
               }
            }
         },
         "place_id" : "ChIJHWGywwPk3JQRYutKitqvluI",
         "types" : [ "route" ]
      },
      {
         "address_components" : [
            {
               "long_name" : "80520-250",
               "short_name" : "80520-250",
               "types" : [ "postal_code" ]
            },
            {
               "long_name" : "Bom Retiro",
               "short_name" : "Bom Retiro",
               "types" : [ "political", "sublocality", "sublocality_level_1" ]
            },
            {
               "long_name" : "Curitiba",
               "short_name" : "Curitiba",
               "types" : [ "administrative_area_level_2", "political" ]
            },
            {
               "long_name" : "State of Paraná",
               "short_name" : "PR",
               "types" : [ "administrative_area_level_1", "political" ]
            },
            {
               "long_name" : "Brazil",
               "short_name" : "BR",
               "types" : [ "country", "political" ]
            }
         ],
         "formatted_address" : "Bom Retiro, Curitiba - State of Paraná, 80520-250, Brazil",
         "geometry" : {
            "bounds" : {
               "northeast" : {
                  "lat" : -25.3961898,
                  "lng" : -49.2768358
               },
               "southwest" : {
                  "lat" : -25.4177302,
                  "lng" : -49.2884542
               }
            },
            "location" : {
               "lat" : -25.4065951,
               "lng" : -49.2825588
            },
            "location_type" : "APPROXIMATE",
            "viewport" : {
               "northeast" : {
                  "lat" : -25.3961898,
                  "lng" : -49.2768358
               },
               "southwest" : {
                  "lat" : -25.4177302,
                  "lng" : -49.2884542
               }
            }
         },
         "place_id" : "ChIJbQKatqvm3JQRLVqRQAjjFKs",
         "types" : [ "postal_code" ]
      },
      {
         "address_components" : [
            {
               "long_name" : "80520",
               "short_name" : "80520",
               "types" : [ "postal_code", "postal_code_prefix" ]
            },
            {
               "long_name" : "Bom Retiro",
               "short_name" : "Bom Retiro",
               "types" : [ "political", "sublocality", "sublocality_level_1" ]
            },
            {
               "long_name" : "Curitiba",
               "short_name" : "Curitiba",
               "types" : [ "administrative_area_level_2", "political" ]
            },
            {
               "long_name" : "State of Paraná",
               "short_name" : "PR",
               "types" : [ "administrative_area_level_1", "political" ]
            },
            {
               "long_name" : "Brazil",
               "short_name" : "BR",
               "types" : [ "country", "political" ]
            }
         ],
         "formatted_address" : "Bom Retiro, Curitiba - State of Paraná, 80520, Brazil",
         "geometry" : {
            "bounds" : {
               "northeast" : {
                  "lat" : -25.4057204,
                  "lng" : -49.2693739
               },
               "southwest" : {
                  "lat" : -25.4182385,
                  "lng" : -49.2856304
               }
            },
            "location" : {
               "lat" : -25.4144905,
               "lng" : -49.27780629999999
            },
            "location_type" : "APPROXIMATE",
            "viewport" : {
               "northeast" : {
                  "lat" : -25.4057204,
                  "lng" : -49.2693739
               },
               "southwest" : {
                  "lat" : -25.4182385,
                  "lng" : -49.2856304
               }
            }
         },
         "place_id" : "ChIJS4-twKnm3JQREKaAWybt2Zs",
         "types" : [ "postal_code", "postal_code_prefix" ]
      },
      {
         "address_components" : [
            {
               "long_name" : "São Francisco",
               "short_name" : "São Francisco",
               "types" : [ "political", "sublocality", "sublocality_level_1" ]
            },
            {
               "long_name" : "Curitiba",
               "short_name" : "Curitiba",
               "types" : [ "administrative_area_level_2", "political" ]
            },
            {
               "long_name" : "State of Paraná",
               "short_name" : "PR",
               "types" : [ "administrative_area_level_1", "political" ]
            },
            {
               "long_name" : "Brazil",
               "short_name" : "BR",
               "types" : [ "country", "political" ]
            },
            {
               "long_name" : "82590-300",
               "short_name" : "82590-300",
               "types" : [ "postal_code" ]
            }
         ],
         "formatted_address" : "São Francisco, Curitiba - State of Paraná, 82590-300, Brazil",
         "geometry" : {
            "bounds" : {
               "northeast" : {
                  "lat" : -25.4162735,
                  "lng" : -49.2701405
               },
               "southwest" : {
                  "lat" : -25.4300763,
                  "lng" : -49.2824884
               }
            },
            "location" : {
               "lat" : -25.4234212,
               "lng" : -49.2757774
            },
            "location_type" : "APPROXIMATE",
            "viewport" : {
               "northeast" : {
                  "lat" : -25.4162735,
                  "lng" : -49.2701405
               },
               "southwest" : {
                  "lat" : -25.4300763,
                  "lng" : -49.2824884
               }
            }
         },
         "place_id" : "ChIJ-wU6gw_k3JQRHrmOdJCV_pI",
         "types" : [ "political", "sublocality", "sublocality_level_1" ]
      },
      {
         "address_components" : [
            {
               "long_name" : "Matriz",
               "short_name" : "Matriz",
               "types" : [ "administrative_area_level_4", "political" ]
            },
            {
               "long_name" : "Curitiba",
               "short_name" : "Curitiba",
               "types" : [ "administrative_area_level_2", "political" ]
            },
            {
               "long_name" : "State of Paraná",
               "short_name" : "PR",
               "types" : [ "administrative_area_level_1", "political" ]
            },
            {
               "long_name" : "Brazil",
               "short_name" : "BR",
               "types" : [ "country", "political" ]
            }
         ],
         "formatted_address" : "Matriz, Curitiba - State of Paraná, Brazil",
         "geometry" : {
            "bounds" : {
               "northeast" : {
                  "lat" : -25.3928639,
                  "lng" : -49.2184679
               },
               "southwest" : {
                  "lat" : -25.4688678,
                  "lng" : -49.3192934
               }
            },
            "location" : {
               "lat" : -25.4217847,
               "lng" : -49.2740045
            },
            "location_type" : "APPROXIMATE",
            "viewport" : {
               "northeast" : {
                  "lat" : -25.3928639,
                  "lng" : -49.2184679
               },
               "southwest" : {
                  "lat" : -25.4688678,
                  "lng" : -49.3192934
               }
            }
         },
         "place_id" : "ChIJSdL-QBTk3JQRTa4Zsr5CKw0",
         "types" : [ "administrative_area_level_4", "political" ]
      },
      {
         "address_components" : [
            {
               "long_name" : "Curitiba",
               "short_name" : "Curitiba",
               "types" : [ "locality", "political" ]
            },
            {
               "long_name" : "Curitiba",
               "short_name" : "Curitiba",
               "types" : [ "administrative_area_level_2", "political" ]
            },
            {
               "long_name" : "State of Paraná",
               "short_name" : "PR",
               "types" : [ "administrative_area_level_1", "political" ]
            },
            {
               "long_name" : "Brazil",
               "short_name" : "BR",
               "types" : [ "country", "political" ]
            }
         ],
         "formatted_address" : "Curitiba, State of Paraná, Brazil",
         "geometry" : {
            "bounds" : {
               "northeast" : {
                  "lat" : -25.346995,
                  "lng" : -49.1897635
               },
               "southwest" : {
                  "lat" : -25.6432382,
                  "lng" : -49.38983289999999
               }
            },
            "location" : {
               "lat" : -25.4289541,
               "lng" : -49.267137
            },
            "location_type" : "APPROXIMATE",
            "viewport" : {
               "northeast" : {
                  "lat" : -25.346995,
                  "lng" : -49.1897635
               },
               "southwest" : {
                  "lat" : -25.6432382,
                  "lng" : -49.38983289999999
               }
            }
         },
         "place_id" : "ChIJ3bPNUVPj3JQRCejLuqVrL20",
         "types" : [ "locality", "political" ]
      },
      {
         "address_components" : [
            {
               "long_name" : "Curitiba",
               "short_name" : "Curitiba",
               "types" : [ "administrative_area_level_2", "political" ]
            },
            {
               "long_name" : "State of Paraná",
               "short_name" : "PR",
               "types" : [ "administrative_area_level_1", "political" ]
            },
            {
               "long_name" : "Brazil",
               "short_name" : "BR",
               "types" : [ "country", "political" ]
            }
         ],
         "formatted_address" : "Curitiba - State of Paraná, Brazil",
         "geometry" : {
            "bounds" : {
               "northeast" : {
                  "lat" : -25.346736,
                  "lng" : -49.18522489999999
               },
               "southwest" : {
                  "lat" : -25.6453862,
                  "lng" : -49.38933859999999
               }
            },
            "location" : {
               "lat" : -25.4808762,
               "lng" : -49.3044253
            },
            "location_type" : "APPROXIMATE",
            "viewport" : {
               "northeast" : {
                  "lat" : -25.346736,
                  "lng" : -49.18522489999999
               },
               "southwest" : {
                  "lat" : -25.6453862,
                  "lng" : -49.38933859999999
               }
            }
         },
         "place_id" : "ChIJ8Q8J_PXj3JQRR7crCbCDejw",
         "types" : [ "administrative_area_level_2", "political" ]
      },
      {
         "address_components" : [
            {
               "long_name" : "State of Paraná",
               "short_name" : "PR",
               "types" : [ "administrative_area_level_1", "political" ]
            },
            {
               "long_name" : "Brazil",
               "short_name" : "BR",
               "types" : [ "country", "political" ]
            }
         ],
         "formatted_address" : "State of Paraná, Brazil",
         "geometry" : {
            "bounds" : {
               "northeast" : {
                  "lat" : -22.5166644,
                  "lng" : -48.0235303
               },
               "southwest" : {
                  "lat" : -26.7172983,
                  "lng" : -54.6192979
               }
            },
            "location" : {
               "lat" : -25.2520888,
               "lng" : -52.0215415
            },
            "location_type" : "APPROXIMATE",
            "viewport" : {
               "northeast" : {
                  "lat" : -22.5166644,
                  "lng" : -48.0235303
               },
               "southwest" : {
                  "lat" : -26.7172983,
                  "lng" : -54.6192979
               }
            }
         },
         "place_id" : "ChIJnWK4MJQL25QRYfDOY1D9k-g",
         "types" : [ "administrative_area_level_1", "political" ]
      },
      {
         "address_components" : [
            {
               "long_name" : "Brazil",
               "short_name" : "BR",
               "types" : [ "country", "political" ]
            }
         ],
         "formatted_address" : "Brazil",
         "geometry" : {
            "bounds" : {
               "northeast" : {
                  "lat" : 5.2717863,
                  "lng" : -28.650543
               },
               "southwest" : {
                  "lat" : -34.0891,
                  "lng" : -73.9828169
               }
            },
            "location" : {
               "lat" : -14.235004,
               "lng" : -51.92528
            },
            "location_type" : "APPROXIMATE",
            "viewport" : {
               "northeast" : {
                  "lat" : 5.2717863,
                  "lng" : -28.650543
               },
               "southwest" : {
                  "lat" : -34.0891,
                  "lng" : -73.9828169
               }
            }
         },
         "place_id" : "ChIJzyjM68dZnAARYz4p8gYVWik",
         "types" : [ "country", "political" ]
      }
   ],
   "status" : "OK"
}
