{
   "plus_code" : {
      "compound_code" : "JQ64+P6 Curitiba, State of Paraná, Brazil",
      "global_code" : "586GJQ64+P6"
   },
   "results" : [
      {
         "address_components" : [
            {
               "long_name" : "1403",
               "short_name" : "1403",
               "types" : [ "street_number" ]
            },
            {
               "long_name" : "Rua Lodovico Geronazzo",
               "short_name" : "Rua Lodovico Geronazzo",
               "types" : [ "route" ]
            },
            {
               "long_name" : "Boa Vista",
               "short_name" : "Boa Vista",
               "types" : [ "political", "sublocality", "sublocality_level_1" ]
            },
            {
               "long_name" : "Curitiba",
               "short_name" : "Curitiba",
               "types" : [ "administrative_area_level_2", "political" ]
            },
            {
               "long_name" : "Paraná",
               "short_name" : "PR",
               "types" : [ "administrative_area_level_1", "political" ]
            },
            {
               "long_name" : "Brazil",
               "short_name" : "BR",
               "types" : [ "country", "political" ]
            },
            {
               "long_name" : "82560-040",
               "short_name" : "82560-040",
               "types" : [ "postal_code" ]
            }
         ],
         "formatted_address" : "Rua Lodovico Geronazzo, 1403 - Boa Vista, Curitiba - PR, 82560-040, Brazil",
         "geometry" : {
            "location" : {
               "lat" : -25.388082,
               "lng" : -49.244252
            },
            "location_type" : "ROOFTOP",
            "viewport" : {
               "northeast" : {
                  "lat" : -25.38673301970849,
                  "lng" : -49.2429030197085
               },
               "southwest" : {
                  "lat" : -25.3894309802915,
                  "lng" : -49.2456009802915
               }
            }
         },
         "place_id" : "ChIJvVmL74nm3JQRdc9VhR1n2A0",
         "plus_code" : {
            "compound_code" : "JQ64+Q7 Curitiba, State of Paraná, Brazil",
            "global_code" : "586GJQ64+Q7"
         },
         "types" : [ "street_address" ]
      },
      {
         "address_components" : [
            {
               "long_name" : "794",
               "short_name" : "794",
               "types" : [ "street_number" ]
            },
            {
               "long_name" : "Rua Lodovico Geronazzo",
               "short_name" : "Rua Lodovico Geronazzo",
               "types" : [ "route" ]
            },
            {
               "long_name" : "Boa Vista",
               "short_name" : "Boa Vista",
               "types" : [ "political", "sublocality", "sublocality_level_1" ]
            },
            {
               "long_name" : "Curitiba",
               "short_name" : "Curitiba",
               "types" : [ "administrative_area_level_2", "political" ]
            },
            {
               "long_name" : "Paraná",
               "short_name" : "PR",
               "types" : [ "administrative_area_level_1", "political" ]
            },
            {
               "long_name" : "Brazil",
               "short_name" : "BR",
               "types" : [ "country", "political" ]
            },
            {
               "long_name" : "82560-040",
               "short_name" : "82560-040",
               "types" : [ "postal_code" ]
            }
         ],
         "formatted_address" : "Rua Lodovico Geronazzo, 794 - Boa Vista, Curitiba - PR, 82560-040, Brazil",
         "geometry" : {
            "location" : {
               "lat" : -25.3879698,
               "lng" : -49.244265
            },
            "location_type" : "RANGE_INTERPOLATED",
            "viewport" : {
               "northeast" : {
                  "lat" : -25.3866208197085,
                  "lng" : -49.2429160197085
               },
               "southwest" : {
                  "lat" : -25.3893187802915,
                  "lng" : -49.24561398029149
               }
            }
         },
         "place_id" : "EklSdWEgTG9kb3ZpY28gR2Vyb25henpvLCA3OTQgLSBCb2EgVmlzdGEsIEN1cml0aWJhIC0gUFIsIDgyNTYwLTA0MCwgQnJhemlsIhsSGQoUChIJGZtW5Inm3JQRAOEXrCrWN-cQmgY",
         "types" : [ "street_address" ]
      },
      {
         "address_components" : [
            {
               "long_name" : "710-816",
               "short_name" : "710-816",
               "types" : [ "street_number" ]
            },
            {
               "long_name" : "Rua Lodovico Geronazzo",
               "short_name" : "Rua Lodovico Geronazzo",
               "types" : [ "route" ]
            },
            {
               "long_name" : "Boa Vista",
               "short_name" : "Boa Vista",
               "types" : [ "political", "sublocality", "sublocality_level_1" ]
            },
            {
               "long_name" : "Curitiba",
               "short_name" : "Curitiba",
               "types" : [ "administrative_area_level_2", "political" ]
            },
            {
               "long_name" : "Paraná",
               "short_name" : "PR",
               "types" : [ "administrative_area_level_1", "political" ]
            },
            {
               "long_name" : "Brazil",
               "short_name" : "BR",
               "types" : [ "country", "political" ]
            },
            {
               "long_name" : "82560-040",
               "short_name" : "82560-040",
               "types" : [ "postal_code" ]
            }
         ],
         "formatted_address" : "Rua Lodovico Geronazzo, 710-816 - Boa Vista, Curitiba - PR, 82560-040, Brazil",
         "geometry" : {
            "bounds" : {
               "northeast" : {
                  "lat" : -25.3878225,
                  "lng" : -49.2436502
               },
               "southwest" : {
                  "lat" : -25.3884322,
                  "lng" : -49.2444607
               }
            },
            "location" : {
               "lat" : -25.3881274,
               "lng" : -49.24405549999999
            },
            "location_type" : "GEOMETRIC_CENTER",
            "viewport" : {
               "northeast" : {
                  "lat" : -25.3867783697085,
                  "lng" : -49.2427064697085
               },
               "southwest" : {
                  "lat" : -25.3894763302915,
                  "lng" : -49.24540443029149
               }
            }
         },
         "place_id" : "ChIJGZtW5Inm3JQRAOEXrCrWN-c",
         "types" : [ "route" ]
      },
      {
         "address_components" : [
            {
               "long_name" : "82560-040",
               "short_name" : "82560-040",
               "types" : [ "postal_code" ]
            },
            {
               "long_name" : "Boa Vista",
               "short_name" : "Boa Vista",
               "types" : [ "political", "sublocality", "sublocality_level_1" ]
            },
            {
               "long_name" : "Curitiba",
               "short_name" : "Curitiba",
               "types" : [ "administrative_area_level_2", "political" ]
            },
            {
               "long_name" : "State of Paraná",
               "short_name" : "PR",
               "types" : [ "administrative_area_level_1", "political" ]
            },
            {
               "long_name" : "Brazil",
               "short_name" : "BR",
               "types" : [ "country", "political" ]
            }
         ],
         "formatted_address" : "Boa Vista, Curitiba - State of Paraná, 82560-040, Brazil",
         "geometry" : {
            "bounds" : {
               "northeast" : {
                  "lat" : -25.3783367,
                  "lng" : -49.2382378
               },
               "southwest" : {
                  "lat" : -25.3924773,
                  "lng" : -49.2569062
               }
            },
            "location" : {
               "lat" : -25.3869962,
               "lng" : -49.2458163
            },
            "location_type" : "APPROXIMATE",
            "viewport" : {
               "northeast" : {
                  "lat" : -25.3783367,
                  "lng" : -49.2382378
               },
               "southwest" : {
                  "lat" : -25.3924773,
                  "lng" : -49.2569062
               }
            }
         },
         "place_id" : "ChIJhcnPgnzm3JQR6Rf8uPjJQns",
         "types" : [ "postal_code" ]
      },
      {
         "address_components" : [
            {
               "long_name" : "82560",
               "short_name" : "82560",
               "types" : [ "postal_code", "postal_code_prefix" ]
            },
            {
               "long_name" : "Boa Vista",
               "short_name" : "Boa Vista",
               "types" : [ "political", "sublocality", "sublocality_level_1" ]
            },
            {
               "long_name" : "Curitiba",
               "short_name" : "Curitiba",
               "types" : [ "administrative_area_level_2", "political" ]
            },
            {
               "long_name" : "State of Paraná",
               "short_name" : "PR",
               "types" : [ "administrative_area_level_1", "political" ]
            },
            {
               "long_name" : "Brazil",
               "short_name" : "BR",
               "types" : [ "country", "political" ]
            }
         ],
         "formatted_address" : "Boa Vista, Curitiba - State of Paraná, 82560, Brazil",
         "geometry" : {
            "bounds" : {
               "northeast" : {
                  "lat" : -25.3772091,
                  "lng" : -49.2386618
               },
               "southwest" : {
                  "lat" : -25.3912371,
                  "lng" : -49.2570033
               }
            },
            "location" : {
               "lat" : -25.3855732,
               "lng" : -49.2461329
            },
            "location_type" : "APPROXIMATE",
            "viewport" : {
               "northeast" : {
                  "lat" : -25.3772091,
                  "lng" : -49.2386618
               },
               "southwest" : {
                  "lat" : -25.3912371,
                  "lng" : -49.2570033
               }
            }
         },
         "place_id" : "ChIJd5oST4vm3JQRK46jpyevgaM",
         "types" : [ "postal_code", "postal_code_prefix" ]
      },
      {
         "address_components" : [
            {
               "long_name" : "Boa Vista",
               "short_name" : "Boa Vista",
               "types" : [ "political", "sublocality", "sublocality_level_1" ]
            },
            {
               "long_name" : "Curitiba",
               "short_name" : "Curitiba",
               "types" : [ "administrative_area_level_2", "political" ]
            },
            {
               "long_name" : "State of Paraná",
               "short_name" : "PR",
               "types" : [ "administrative_area_level_1", "political" ]
            },
            {
               "long_name" : "Brazil",
               "short_name" : "BR",
               "types" : [ "country", "political" ]
            }
         ],
         "formatted_address" : "Boa Vista, Curitiba - State of Paraná, Brazil",
         "geometry" : {
            "bounds" : {
               "northeast" : {
                  "lat" : -25.3716464,
                  "lng" : -49.2323934
               },
               "southwest" : {
                  "lat" : -25.4010466,
                  "lng" : -49.2616416
               }
            },
            "location" : {
               "lat" : -25.388446,
               "lng" : -49.2436556
            },
            "location_type" : "APPROXIMATE",
            "viewport" : {
               "northeast" : {
                  "lat" : -25.3716464,
                  "lng" : -49.2323934
               },
               "southwest" : {
                  "lat" : -25.4010466,
                  "lng" : -49.2616416
               }
            }
         },
         "place_id" : "ChIJxxscpYvm3JQRx9mRflxCxZw",
         "types" : [ "political", "sublocality", "sublocality_level_1" ]
      },
      {
         "address_components" : [
            {
               "long_name" : "Boa Vista",
               "short_name" : "Boa Vista",
               "types" : [ "administrative_area_level_4", "political" ]
            },
            {
               "long_name" : "Curitiba",
               "short_name" : "Curitiba",
               "types" : [ "administrative_area_level_2", "political" ]
            },
            {
               "long_name" : "State of Paraná",
               "short_name" : "PR",
               "types" : [ "administrative_area_level_1", "political" ]
            },
            {
               "long_name" : "Brazil",
               "short_name" : "BR",
               "types" : [ "country", "political" ]
            }
         ],
         "formatted_address" : "Boa Vista, Curitiba - State of Paraná, Brazil",
         "geometry" : {
            "bounds" : {
               "northeast" : {
                  "lat" : -25.346995,
                  "lng" : -49.1914303
               },
               "southwest" : {
                  "lat" : -25.4313697,
                  "lng" : -49.2815916
               }
            },
            "location" : {
               "lat" : -25.3886823,
               "lng" : -49.2334685
            },
            "location_type" : "APPROXIMATE",
            "viewport" : {
               "northeast" : {
                  "lat" : -25.346995,
                  "lng" : -49.1914303
               },
               "southwest" : {
                  "lat" : -25.4313697,
                  "lng" : -49.2815916
               }
            }
         },
         "place_id" : "ChIJ4yXhiYjm3JQRib7FMdA38u0",
         "types" : [ "administrative_area_level_4", "political" ]
      },
      {
         "address_components" : [
            {
               "long_name" : "Curitiba",
               "short_name" : "Curitiba",
               "types" : [ "locality", "political" ]
            },
            {
               "long_name" : "Curitiba",
               "short_name" : "Curitiba",
               "types" : [ "administrative_area_level_2", "political" ]
            },
            {
               "long_name" : "State of Paraná",
               "short_name" : "PR",
               "types" : [ "administrative_area_level_1", "political" ]
            },
            {
               "long_name" : "Brazil",
               "short_name" : "BR",
               "types" : [ "country", "political" ]
            }
         ],
         "formatted_address" : "Curitiba, State of Paraná, Brazil",
         "geometry" : {
            "bounds" : {
               "northeast" : {
                  "lat" : -25.346995,
                  "lng" : -49.1897635
               },
               "southwest" : {
                  "lat" : -25.6432382,
                  "lng" : -49.38983289999999
               }
            },
            "location" : {
               "lat" : -25.4289541,
               "lng" : -49.267137
            },
            "location_type" : "APPROXIMATE",
            "viewport" : {
               "northeast" : {
                  "lat" : -25.346995,
                  "lng" : -49.1897635
               },
               "southwest" : {
                  "lat" : -25.6432382,
                  "lng" : -49.38983289999999
               }
            }
         },
         "place_id" : "ChIJ3bPNUVPj3JQRCejLuqVrL20",
         "types" : [ "locality", "political" ]
      },
      {
         "address_components" : [
            {
               "long_name" : "Curitiba",
               "short_name" : "Curitiba",
               "types" : [ "administrative_area_level_2", "political" ]
            },
            {
               "long_name" : "State of Paraná",
               "short_name" : "PR",
               "types" : [ "administrative_area_level_1", "political" ]
            },
            {
               "long_name" : "Brazil",
               "short_name" : "BR",
               "types" : [ "country", "political" ]
            }
         ],
         "formatted_address" : "Curitiba - State of Paraná, Brazil",
         "geometry" : {
            "bounds" : {
               "northeast" : {
                  "lat" : -25.346736,
                  "lng" : -49.18522489999999
               },
               "southwest" : {
                  "lat" : -25.6453862,
                  "lng" : -49.38933859999999
               }
            },
            "location" : {
               "lat" : -25.4808762,
               "lng" : -49.3044253
            },
            "location_type" : "APPROXIMATE",
            "viewport" : {
               "northeast" : {
                  "lat" : -25.346736,
                  "lng" : -49.18522489999999
               },
               "southwest" : {
                  "lat" : -25.6453862,
                  "lng" : -49.38933859999999
               }
            }
         },
         "place_id" : "ChIJ8Q8J_PXj3JQRR7crCbCDejw",
         "types" : [ "administrative_area_level_2", "political" ]
      },
      {
         "address_components" : [
            {
               "long_name" : "State of Paraná",
               "short_name" : "PR",
               "types" : [ "administrative_area_level_1", "political" ]
            },
            {
               "long_name" : "Brazil",
               "short_name" : "BR",
               "types" : [ "country", "political" ]
            }
         ],
         "formatted_address" : "State of Paraná, Brazil",
         "geometry" : {
            "bounds" : {
               "northeast" : {
                  "lat" : -22.5166644,
                  "lng" : -48.0235303
               },
               "southwest" : {
                  "lat" : -26.7172983,
                  "lng" : -54.6192979
               }
            },
            "location" : {
               "lat" : -25.2520888,
               "lng" : -52.0215415
            },
            "location_type" : "APPROXIMATE",
            "viewport" : {
               "northeast" : {
                  "lat" : -22.5166644,
                  "lng" : -48.0235303
               },
               "southwest" : {
                  "lat" : -26.7172983,
                  "lng" : -54.6192979
               }
            }
         },
         "place_id" : "ChIJnWK4MJQL25QRYfDOY1D9k-g",
         "types" : [ "administrative_area_level_1", "political" ]
      },
      {
         "address_components" : [
            {
               "long_name" : "Brazil",
               "short_name" : "BR",
               "types" : [ "country", "political" ]
            }
         ],
         "formatted_address" : "Brazil",
         "geometry" : {
            "bounds" : {
               "northeast" : {
                  "lat" : 5.2717863,
                  "lng" : -28.650543
               },
               "southwest" : {
                  "lat" : -34.0891,
                  "lng" : -73.9828169
               }
            },
            "location" : {
               "lat" : -14.235004,
               "lng" : -51.92528
            },
            "location_type" : "APPROXIMATE",
            "viewport" : {
               "northeast" : {
                  "lat" : 5.2717863,
                  "lng" : -28.650543
               },
               "southwest" : {
                  "lat" : -34.0891,
                  "lng" : -73.9828169
               }
            }
         },
         "place_id" : "ChIJzyjM68dZnAARYz4p8gYVWik",
         "types" : [ "country", "political" ]
      }
   ],
   "status" : "OK"
}
