{
   "plus_code" : {
      "compound_code" : "HPW2+J2 Curitiba, State of Paraná, Brazil",
      "global_code" : "586GHPW2+J2"
   },
   "results" : [
      {
         "address_components" : [
            {
               "long_name" : "12",
               "short_name" : "12",
               "types" : [ "street_number" ]
            },
            {
               "long_name" : "Rua Via Vicenza",
               "short_name" : "R. Via Vicenza",
               "types" : [ "route" ]
            },
            {
               "long_name" : "Vista Alegre",
               "short_name" : "Vista Alegre",
               "types" : [ "political", "sublocality", "sublocality_level_1" ]
            },
            {
               "long_name" : "Curitiba",
               "short_name" : "Curitiba",
               "types" : [ "administrative_area_level_2", "political" ]
            },
            {
               "long_name" : "Paraná",
               "short_name" : "PR",
               "types" : [ "administrative_area_level_1", "political" ]
            },
            {
               "long_name" : "Brazil",
               "short_name" : "BR",
               "types" : [ "country", "political" ]
            },
            {
               "long_name" : "81020-490",
               "short_name" : "81020-490",
               "types" : [ "postal_code" ]
            }
         ],
         "formatted_address" : "R. Via Vicenza, 12 - Vista Alegre, Curitiba - PR, 81020-490, Brazil",
         "geometry" : {
            "location" : {
               "lat" : -25.4033787,
               "lng" : -49.2998406
            },
            "location_type" : "RANGE_INTERPOLATED",
            "viewport" : {
               "northeast" : {
                  "lat" : -25.40202971970849,
                  "lng" : -49.2984916197085
               },
               "southwest" : {
                  "lat" : -25.4047276802915,
                  "lng" : -49.30118958029149
               }
            }
         },
         "place_id" : "EjhSLiBWaWEgVmljZW56YSwgMTIgLSBWaXN0YSBBbGVncmUsIEN1cml0aWJhIC0gUFIsIEJyYXppbCIaEhgKFAoSCbN9YudA4dyUEdWjxUiLTQWYEAw",
         "types" : [ "street_address" ]
      },
      {
         "address_components" : [
            {
               "long_name" : "432",
               "short_name" : "432",
               "types" : [ "street_number" ]
            },
            {
               "long_name" : "Rua Professor Dário García",
               "short_name" : "R. Prof. Dário García",
               "types" : [ "route" ]
            },
            {
               "long_name" : "Vista Alegre",
               "short_name" : "Vista Alegre",
               "types" : [ "political", "sublocality", "sublocality_level_1" ]
            },
            {
               "long_name" : "Curitiba",
               "short_name" : "Curitiba",
               "types" : [ "administrative_area_level_2", "political" ]
            },
            {
               "long_name" : "Paraná",
               "short_name" : "PR",
               "types" : [ "administrative_area_level_1", "political" ]
            },
            {
               "long_name" : "Brazil",
               "short_name" : "BR",
               "types" : [ "country", "political" ]
            },
            {
               "long_name" : "80820-410",
               "short_name" : "80820-410",
               "types" : [ "postal_code" ]
            }
         ],
         "formatted_address" : "R. Prof. Dário García, 432 - Vista Alegre, Curitiba - PR, 80820-410, Brazil",
         "geometry" : {
            "location" : {
               "lat" : -25.404502,
               "lng" : -49.300042
            },
            "location_type" : "ROOFTOP",
            "viewport" : {
               "northeast" : {
                  "lat" : -25.40315301970849,
                  "lng" : -49.2986930197085
               },
               "southwest" : {
                  "lat" : -25.4058509802915,
                  "lng" : -49.3013909802915
               }
            }
         },
         "place_id" : "ChIJw952N0Hh3JQRSmH8SnoFfSg",
         "plus_code" : {
            "compound_code" : "HMWX+5X Curitiba, State of Paraná, Brazil",
            "global_code" : "586GHMWX+5X"
         },
         "types" : [ "street_address" ]
      },
      {
         "address_components" : [
            {
               "long_name" : "81-1",
               "short_name" : "81-1",
               "types" : [ "street_number" ]
            },
            {
               "long_name" : "Rua Via Vicenza",
               "short_name" : "R. Via Vicenza",
               "types" : [ "route" ]
            },
            {
               "long_name" : "Vista Alegre",
               "short_name" : "Vista Alegre",
               "types" : [ "political", "sublocality", "sublocality_level_1" ]
            },
            {
               "long_name" : "Curitiba",
               "short_name" : "Curitiba",
               "types" : [ "administrative_area_level_2", "political" ]
            },
            {
               "long_name" : "Paraná",
               "short_name" : "PR",
               "types" : [ "administrative_area_level_1", "political" ]
            },
            {
               "long_name" : "Brazil",
               "short_name" : "BR",
               "types" : [ "country", "political" ]
            },
            {
               "long_name" : "81020-490",
               "short_name" : "81020-490",
               "types" : [ "postal_code" ]
            }
         ],
         "formatted_address" : "R. Via Vicenza, 81-1 - Vista Alegre, Curitiba - PR, 81020-490, Brazil",
         "geometry" : {
            "bounds" : {
               "northeast" : {
                  "lat" : -25.4030982,
                  "lng" : -49.29976629999999
               },
               "southwest" : {
                  "lat" : -25.4035959,
                  "lng" : -49.3014807
               }
            },
            "location" : {
               "lat" : -25.4031001,
               "lng" : -49.3004914
            },
            "location_type" : "GEOMETRIC_CENTER",
            "viewport" : {
               "northeast" : {
                  "lat" : -25.4019980697085,
                  "lng" : -49.2992745197085
               },
               "southwest" : {
                  "lat" : -25.4046960302915,
                  "lng" : -49.3019724802915
               }
            }
         },
         "place_id" : "ChIJs31i50Dh3JQR1KPFSItNBZg",
         "types" : [ "route" ]
      },
      {
         "address_components" : [
            {
               "long_name" : "658",
               "short_name" : "658",
               "types" : [ "street_number" ]
            },
            {
               "long_name" : "Rua Luiz Leduc",
               "short_name" : "Rua Luiz Leduc",
               "types" : [ "route" ]
            },
            {
               "long_name" : "Vista Alegre",
               "short_name" : "Vista Alegre",
               "types" : [ "political", "sublocality", "sublocality_level_1" ]
            },
            {
               "long_name" : "Curitiba",
               "short_name" : "Curitiba",
               "types" : [ "administrative_area_level_2", "political" ]
            },
            {
               "long_name" : "Paraná",
               "short_name" : "PR",
               "types" : [ "administrative_area_level_1", "political" ]
            },
            {
               "long_name" : "Brazil",
               "short_name" : "BR",
               "types" : [ "country", "political" ]
            },
            {
               "long_name" : "82100-010",
               "short_name" : "82100-010",
               "types" : [ "postal_code" ]
            }
         ],
         "formatted_address" : "Rua Luiz Leduc, 658 - Vista Alegre, Curitiba - PR, 82100-010, Brazil",
         "geometry" : {
            "location" : {
               "lat" : -25.4023008,
               "lng" : -49.29886200000001
            },
            "location_type" : "ROOFTOP",
            "viewport" : {
               "northeast" : {
                  "lat" : -25.4009518197085,
                  "lng" : -49.29751301970851
               },
               "southwest" : {
                  "lat" : -25.4036497802915,
                  "lng" : -49.30021098029151
               }
            }
         },
         "place_id" : "ChIJicxnMUfh3JQRRDczhaCvYoQ",
         "plus_code" : {
            "compound_code" : "HPX2+3F Vista Alegre - Santa Felicidade, Curitiba - State of Paraná, Brazil",
            "global_code" : "586GHPX2+3F"
         },
         "types" : [ "establishment", "point_of_interest" ]
      },
      {
         "address_components" : [
            {
               "long_name" : "509",
               "short_name" : "509",
               "types" : [ "street_number" ]
            },
            {
               "long_name" : "Rua Professor Dário García",
               "short_name" : "R. Prof. Dário García",
               "types" : [ "route" ]
            },
            {
               "long_name" : "Vista Alegre",
               "short_name" : "Vista Alegre",
               "types" : [ "political", "sublocality", "sublocality_level_1" ]
            },
            {
               "long_name" : "Curitiba",
               "short_name" : "Curitiba",
               "types" : [ "administrative_area_level_2", "political" ]
            },
            {
               "long_name" : "Paraná",
               "short_name" : "PR",
               "types" : [ "administrative_area_level_1", "political" ]
            },
            {
               "long_name" : "Brazil",
               "short_name" : "BR",
               "types" : [ "country", "political" ]
            },
            {
               "long_name" : "80820-410",
               "short_name" : "80820-410",
               "types" : [ "postal_code" ]
            }
         ],
         "formatted_address" : "R. Prof. Dário García, 509 - Vista Alegre, Curitiba - PR, 80820-410, Brazil",
         "geometry" : {
            "bounds" : {
               "northeast" : {
                  "lat" : -25.4048768,
                  "lng" : -49.300788
               },
               "southwest" : {
                  "lat" : -25.4052272,
                  "lng" : -49.301013
               }
            },
            "location" : {
               "lat" : -25.4049488,
               "lng" : -49.3008992
            },
            "location_type" : "ROOFTOP",
            "viewport" : {
               "northeast" : {
                  "lat" : -25.4037030197085,
                  "lng" : -49.2995515197085
               },
               "southwest" : {
                  "lat" : -25.4064009802915,
                  "lng" : -49.30224948029149
               }
            }
         },
         "place_id" : "ChIJV4-tFEHh3JQRmWzRAwn3ozA",
         "types" : [ "premise" ]
      },
      {
         "address_components" : [
            {
               "long_name" : "82100",
               "short_name" : "82100",
               "types" : [ "postal_code", "postal_code_prefix" ]
            },
            {
               "long_name" : "Curitiba",
               "short_name" : "Curitiba",
               "types" : [ "administrative_area_level_2", "political" ]
            },
            {
               "long_name" : "State of Paraná",
               "short_name" : "PR",
               "types" : [ "administrative_area_level_1", "political" ]
            },
            {
               "long_name" : "Brazil",
               "short_name" : "BR",
               "types" : [ "country", "political" ]
            }
         ],
         "formatted_address" : "Curitiba - State of Paraná, 82100, Brazil",
         "geometry" : {
            "bounds" : {
               "northeast" : {
                  "lat" : -25.3900547,
                  "lng" : -49.2798567
               },
               "southwest" : {
                  "lat" : -25.4074262,
                  "lng" : -49.3019378
               }
            },
            "location" : {
               "lat" : -25.4007895,
               "lng" : -49.291748
            },
            "location_type" : "APPROXIMATE",
            "viewport" : {
               "northeast" : {
                  "lat" : -25.3900547,
                  "lng" : -49.2798567
               },
               "southwest" : {
                  "lat" : -25.4074262,
                  "lng" : -49.3019378
               }
            }
         },
         "place_id" : "ChIJXybCxEnh3JQRNPWg6I9pikU",
         "types" : [ "postal_code", "postal_code_prefix" ]
      },
      {
         "address_components" : [
            {
               "long_name" : "Vista Alegre",
               "short_name" : "Vista Alegre",
               "types" : [ "political", "sublocality", "sublocality_level_1" ]
            },
            {
               "long_name" : "Curitiba",
               "short_name" : "Curitiba",
               "types" : [ "administrative_area_level_2", "political" ]
            },
            {
               "long_name" : "State of Paraná",
               "short_name" : "PR",
               "types" : [ "administrative_area_level_1", "political" ]
            },
            {
               "long_name" : "Brazil",
               "short_name" : "BR",
               "types" : [ "country", "political" ]
            }
         ],
         "formatted_address" : "Vista Alegre, Curitiba - State of Paraná, Brazil",
         "geometry" : {
            "bounds" : {
               "northeast" : {
                  "lat" : -25.3955158,
                  "lng" : -49.28218260000001
               },
               "southwest" : {
                  "lat" : -25.4180266,
                  "lng" : -49.3082755
               }
            },
            "location" : {
               "lat" : -25.4105803,
               "lng" : -49.2919987
            },
            "location_type" : "APPROXIMATE",
            "viewport" : {
               "northeast" : {
                  "lat" : -25.3955158,
                  "lng" : -49.28218260000001
               },
               "southwest" : {
                  "lat" : -25.4180266,
                  "lng" : -49.3082755
               }
            }
         },
         "place_id" : "ChIJY6ukCkXh3JQR9Z_FEZ_VXa4",
         "types" : [ "political", "sublocality", "sublocality_level_1" ]
      },
      {
         "address_components" : [
            {
               "long_name" : "Santa Felicidade",
               "short_name" : "Santa Felicidade",
               "types" : [ "administrative_area_level_4", "political" ]
            },
            {
               "long_name" : "Curitiba",
               "short_name" : "Curitiba",
               "types" : [ "administrative_area_level_2", "political" ]
            },
            {
               "long_name" : "State of Paraná",
               "short_name" : "PR",
               "types" : [ "administrative_area_level_1", "political" ]
            },
            {
               "long_name" : "Brazil",
               "short_name" : "BR",
               "types" : [ "country", "political" ]
            }
         ],
         "formatted_address" : "Santa Felicidade, Curitiba - State of Paraná, Brazil",
         "geometry" : {
            "bounds" : {
               "northeast" : {
                  "lat" : -25.3574986,
                  "lng" : -49.28389989999999
               },
               "southwest" : {
                  "lat" : -25.478325,
                  "lng" : -49.38983289999999
               }
            },
            "location" : {
               "lat" : -25.4040074,
               "lng" : -49.3286941
            },
            "location_type" : "APPROXIMATE",
            "viewport" : {
               "northeast" : {
                  "lat" : -25.3574986,
                  "lng" : -49.28389989999999
               },
               "southwest" : {
                  "lat" : -25.478325,
                  "lng" : -49.38983289999999
               }
            }
         },
         "place_id" : "ChIJVyZ-IkHh3JQRDh40dyt3LqI",
         "types" : [ "administrative_area_level_4", "political" ]
      },
      {
         "address_components" : [
            {
               "long_name" : "81020-490",
               "short_name" : "81020-490",
               "types" : [ "postal_code" ]
            },
            {
               "long_name" : "Novo Mundo",
               "short_name" : "Novo Mundo",
               "types" : [ "political", "sublocality", "sublocality_level_1" ]
            },
            {
               "long_name" : "Curitiba",
               "short_name" : "Curitiba",
               "types" : [ "administrative_area_level_2", "political" ]
            },
            {
               "long_name" : "State of Paraná",
               "short_name" : "PR",
               "types" : [ "administrative_area_level_1", "political" ]
            },
            {
               "long_name" : "Brazil",
               "short_name" : "BR",
               "types" : [ "country", "political" ]
            }
         ],
         "formatted_address" : "Novo Mundo, Curitiba - State of Paraná, 81020-490, Brazil",
         "geometry" : {
            "bounds" : {
               "northeast" : {
                  "lat" : -25.3702745,
                  "lng" : -49.2435999
               },
               "southwest" : {
                  "lat" : -25.5991218,
                  "lng" : -49.36531489999999
               }
            },
            "location" : {
               "lat" : -25.4939116,
               "lng" : -49.2848347
            },
            "location_type" : "APPROXIMATE",
            "viewport" : {
               "northeast" : {
                  "lat" : -25.3702745,
                  "lng" : -49.2435999
               },
               "southwest" : {
                  "lat" : -25.5991218,
                  "lng" : -49.36531489999999
               }
            }
         },
         "place_id" : "ChIJ_7v_sqr83JQRK7ujgne59SI",
         "types" : [ "postal_code" ]
      },
      {
         "address_components" : [
            {
               "long_name" : "Curitiba",
               "short_name" : "Curitiba",
               "types" : [ "locality", "political" ]
            },
            {
               "long_name" : "Curitiba",
               "short_name" : "Curitiba",
               "types" : [ "administrative_area_level_2", "political" ]
            },
            {
               "long_name" : "State of Paraná",
               "short_name" : "PR",
               "types" : [ "administrative_area_level_1", "political" ]
            },
            {
               "long_name" : "Brazil",
               "short_name" : "BR",
               "types" : [ "country", "political" ]
            }
         ],
         "formatted_address" : "Curitiba, State of Paraná, Brazil",
         "geometry" : {
            "bounds" : {
               "northeast" : {
                  "lat" : -25.346995,
                  "lng" : -49.1897635
               },
               "southwest" : {
                  "lat" : -25.6432382,
                  "lng" : -49.38983289999999
               }
            },
            "location" : {
               "lat" : -25.4289541,
               "lng" : -49.267137
            },
            "location_type" : "APPROXIMATE",
            "viewport" : {
               "northeast" : {
                  "lat" : -25.346995,
                  "lng" : -49.1897635
               },
               "southwest" : {
                  "lat" : -25.6432382,
                  "lng" : -49.38983289999999
               }
            }
         },
         "place_id" : "ChIJ3bPNUVPj3JQRCejLuqVrL20",
         "types" : [ "locality", "political" ]
      },
      {
         "address_components" : [
            {
               "long_name" : "Curitiba",
               "short_name" : "Curitiba",
               "types" : [ "administrative_area_level_2", "political" ]
            },
            {
               "long_name" : "State of Paraná",
               "short_name" : "PR",
               "types" : [ "administrative_area_level_1", "political" ]
            },
            {
               "long_name" : "Brazil",
               "short_name" : "BR",
               "types" : [ "country", "political" ]
            }
         ],
         "formatted_address" : "Curitiba - State of Paraná, Brazil",
         "geometry" : {
            "bounds" : {
               "northeast" : {
                  "lat" : -25.346736,
                  "lng" : -49.18522489999999
               },
               "southwest" : {
                  "lat" : -25.6453862,
                  "lng" : -49.38933859999999
               }
            },
            "location" : {
               "lat" : -25.4808762,
               "lng" : -49.3044253
            },
            "location_type" : "APPROXIMATE",
            "viewport" : {
               "northeast" : {
                  "lat" : -25.346736,
                  "lng" : -49.18522489999999
               },
               "southwest" : {
                  "lat" : -25.6453862,
                  "lng" : -49.38933859999999
               }
            }
         },
         "place_id" : "ChIJ8Q8J_PXj3JQRR7crCbCDejw",
         "types" : [ "administrative_area_level_2", "political" ]
      },
      {
         "address_components" : [
            {
               "long_name" : "State of Paraná",
               "short_name" : "PR",
               "types" : [ "administrative_area_level_1", "political" ]
            },
            {
               "long_name" : "Brazil",
               "short_name" : "BR",
               "types" : [ "country", "political" ]
            }
         ],
         "formatted_address" : "State of Paraná, Brazil",
         "geometry" : {
            "bounds" : {
               "northeast" : {
                  "lat" : -22.5166644,
                  "lng" : -48.0235303
               },
               "southwest" : {
                  "lat" : -26.7172983,
                  "lng" : -54.6192979
               }
            },
            "location" : {
               "lat" : -25.2520888,
               "lng" : -52.0215415
            },
            "location_type" : "APPROXIMATE",
            "viewport" : {
               "northeast" : {
                  "lat" : -22.5166644,
                  "lng" : -48.0235303
               },
               "southwest" : {
                  "lat" : -26.7172983,
                  "lng" : -54.6192979
               }
            }
         },
         "place_id" : "ChIJnWK4MJQL25QRYfDOY1D9k-g",
         "types" : [ "administrative_area_level_1", "political" ]
      },
      {
         "address_components" : [
            {
               "long_name" : "Brazil",
               "short_name" : "BR",
               "types" : [ "country", "political" ]
            }
         ],
         "formatted_address" : "Brazil",
         "geometry" : {
            "bounds" : {
               "northeast" : {
                  "lat" : 5.2717863,
                  "lng" : -28.650543
               },
               "southwest" : {
                  "lat" : -34.0891,
                  "lng" : -73.9828169
               }
            },
            "location" : {
               "lat" : -14.235004,
               "lng" : -51.92528
            },
            "location_type" : "APPROXIMATE",
            "viewport" : {
               "northeast" : {
                  "lat" : 5.2717863,
                  "lng" : -28.650543
               },
               "southwest" : {
                  "lat" : -34.0891,
                  "lng" : -73.9828169
               }
            }
         },
         "place_id" : "ChIJzyjM68dZnAARYz4p8gYVWik",
         "types" : [ "country", "political" ]
      }
   ],
   "status" : "OK"
}
