{
   "plus_code" : {
      "compound_code" : "GPW7+4V Curitiba, State of Paraná, Brazil",
      "global_code" : "586GGPW7+4V"
   },
   "results" : [
      {
         "address_components" : [
            {
               "long_name" : "966",
               "short_name" : "966",
               "types" : [ "street_number" ]
            },
            {
               "long_name" : "Rápida Portão-Centro",
               "short_name" : "Rápida Portão-Centro",
               "types" : [ "route" ]
            },
            {
               "long_name" : "Água Verde",
               "short_name" : "Água Verde",
               "types" : [ "political", "sublocality", "sublocality_level_1" ]
            },
            {
               "long_name" : "Curitiba",
               "short_name" : "Curitiba",
               "types" : [ "administrative_area_level_2", "political" ]
            },
            {
               "long_name" : "Paraná",
               "short_name" : "PR",
               "types" : [ "administrative_area_level_1", "political" ]
            },
            {
               "long_name" : "Brazil",
               "short_name" : "BR",
               "types" : [ "country", "political" ]
            },
            {
               "long_name" : "80620-000",
               "short_name" : "80620-000",
               "types" : [ "postal_code" ]
            }
         ],
         "formatted_address" : "Rápida Portão-Centro, 966 - Água Verde, Curitiba - PR, 80620-000, Brazil",
         "geometry" : {
            "location" : {
               "lat" : -25.4548042,
               "lng" : -49.2853599
            },
            "location_type" : "ROOFTOP",
            "viewport" : {
               "northeast" : {
                  "lat" : -25.45345521970849,
                  "lng" : -49.28401091970849
               },
               "southwest" : {
                  "lat" : -25.4561531802915,
                  "lng" : -49.28670888029149
               }
            }
         },
         "place_id" : "ChIJH5ybH4Dj3JQRSezoqlojUvI",
         "plus_code" : {
            "compound_code" : "GPW7+3V Curitiba, State of Paraná, Brazil",
            "global_code" : "586GGPW7+3V"
         },
         "types" : [ "street_address" ]
      },
      {
         "address_components" : [
            {
               "long_name" : "130",
               "short_name" : "130",
               "types" : [ "street_number" ]
            },
            {
               "long_name" : "Travessa Capitão Clementino Paraná",
               "short_name" : "Tv. Cap. Clementino Paraná",
               "types" : [ "route" ]
            },
            {
               "long_name" : "Água Verde",
               "short_name" : "Água Verde",
               "types" : [ "political", "sublocality", "sublocality_level_1" ]
            },
            {
               "long_name" : "Curitiba",
               "short_name" : "Curitiba",
               "types" : [ "administrative_area_level_2", "political" ]
            },
            {
               "long_name" : "Paraná",
               "short_name" : "PR",
               "types" : [ "administrative_area_level_1", "political" ]
            },
            {
               "long_name" : "Brazil",
               "short_name" : "BR",
               "types" : [ "country", "political" ]
            },
            {
               "long_name" : "80620-180",
               "short_name" : "80620-180",
               "types" : [ "postal_code" ]
            }
         ],
         "formatted_address" : "Tv. Cap. Clementino Paraná, 130 - Água Verde, Curitiba - PR, 80620-180, Brazil",
         "geometry" : {
            "location" : {
               "lat" : -25.455054,
               "lng" : -49.2856768
            },
            "location_type" : "ROOFTOP",
            "viewport" : {
               "northeast" : {
                  "lat" : -25.4537050197085,
                  "lng" : -49.2843278197085
               },
               "southwest" : {
                  "lat" : -25.4564029802915,
                  "lng" : -49.28702578029149
               }
            }
         },
         "place_id" : "ChIJRcWTin_j3JQR751fYgooOXE",
         "plus_code" : {
            "compound_code" : "GPV7+XP Curitiba, State of Paraná, Brazil",
            "global_code" : "586GGPV7+XP"
         },
         "types" : [ "establishment", "premise" ]
      },
      {
         "address_components" : [
            {
               "long_name" : "963",
               "short_name" : "963",
               "types" : [ "street_number" ]
            },
            {
               "long_name" : "Rápida Portão-Centro",
               "short_name" : "Rápida Portão-Centro",
               "types" : [ "route" ]
            },
            {
               "long_name" : "Água Verde",
               "short_name" : "Água Verde",
               "types" : [ "political", "sublocality", "sublocality_level_1" ]
            },
            {
               "long_name" : "Curitiba",
               "short_name" : "Curitiba",
               "types" : [ "administrative_area_level_2", "political" ]
            },
            {
               "long_name" : "Paraná",
               "short_name" : "PR",
               "types" : [ "administrative_area_level_1", "political" ]
            },
            {
               "long_name" : "Brazil",
               "short_name" : "BR",
               "types" : [ "country", "political" ]
            },
            {
               "long_name" : "80620",
               "short_name" : "80620",
               "types" : [ "postal_code", "postal_code_prefix" ]
            }
         ],
         "formatted_address" : "Rápida Portão-Centro, 963 - Água Verde, Curitiba - PR, 80620, Brazil",
         "geometry" : {
            "location" : {
               "lat" : -25.4547869,
               "lng" : -49.2852305
            },
            "location_type" : "RANGE_INTERPOLATED",
            "viewport" : {
               "northeast" : {
                  "lat" : -25.4534379197085,
                  "lng" : -49.28388151970849
               },
               "southwest" : {
                  "lat" : -25.4561358802915,
                  "lng" : -49.28657948029149
               }
            }
         },
         "place_id" : "EkBSw6FwaWRhIFBvcnTDo28tQ2VudHJvLCA5NjMgLSDDgWd1YSBWZXJkZSwgQ3VyaXRpYmEgLSBQUiwgQnJhemlsIhsSGQoUChIJnf1UGYDj3JQRVazABHCAhSEQwwc",
         "types" : [ "street_address" ]
      },
      {
         "address_components" : [
            {
               "long_name" : "886-990",
               "short_name" : "886-990",
               "types" : [ "street_number" ]
            },
            {
               "long_name" : "Rápida Portão-Centro",
               "short_name" : "Rápida Portão-Centro",
               "types" : [ "route" ]
            },
            {
               "long_name" : "Água Verde",
               "short_name" : "Água Verde",
               "types" : [ "political", "sublocality", "sublocality_level_1" ]
            },
            {
               "long_name" : "Curitiba",
               "short_name" : "Curitiba",
               "types" : [ "administrative_area_level_2", "political" ]
            },
            {
               "long_name" : "Paraná",
               "short_name" : "PR",
               "types" : [ "administrative_area_level_1", "political" ]
            },
            {
               "long_name" : "Brazil",
               "short_name" : "BR",
               "types" : [ "country", "political" ]
            },
            {
               "long_name" : "80620",
               "short_name" : "80620",
               "types" : [ "postal_code", "postal_code_prefix" ]
            }
         ],
         "formatted_address" : "Rápida Portão-Centro, 886-990 - Água Verde, Curitiba - PR, 80620, Brazil",
         "geometry" : {
            "bounds" : {
               "northeast" : {
                  "lat" : -25.4538694,
                  "lng" : -49.2848473
               },
               "southwest" : {
                  "lat" : -25.4552444,
                  "lng" : -49.2854217
               }
            },
            "location" : {
               "lat" : -25.4545569,
               "lng" : -49.2851345
            },
            "location_type" : "GEOMETRIC_CENTER",
            "viewport" : {
               "northeast" : {
                  "lat" : -25.4532079197085,
                  "lng" : -49.2837855197085
               },
               "southwest" : {
                  "lat" : -25.4559058802915,
                  "lng" : -49.28648348029149
               }
            }
         },
         "place_id" : "ChIJnf1UGYDj3JQRVKzABHCAhSE",
         "types" : [ "route" ]
      },
      {
         "address_components" : [
            {
               "long_name" : "80620-000",
               "short_name" : "80620-000",
               "types" : [ "postal_code" ]
            },
            {
               "long_name" : "Rua Guilherme Pugsley",
               "short_name" : "Rua Guilherme Pugsley",
               "types" : [ "route" ]
            },
            {
               "long_name" : "Água Verde",
               "short_name" : "Água Verde",
               "types" : [ "political", "sublocality", "sublocality_level_1" ]
            },
            {
               "long_name" : "Curitiba",
               "short_name" : "Curitiba",
               "types" : [ "administrative_area_level_2", "political" ]
            },
            {
               "long_name" : "Paraná",
               "short_name" : "PR",
               "types" : [ "administrative_area_level_1", "political" ]
            },
            {
               "long_name" : "Brazil",
               "short_name" : "BR",
               "types" : [ "country", "political" ]
            }
         ],
         "formatted_address" : "Rua Guilherme Pugsley - Água Verde, Curitiba - PR, 80620-000, Brazil",
         "geometry" : {
            "bounds" : {
               "northeast" : {
                  "lat" : -25.4542317,
                  "lng" : -49.2847267
               },
               "southwest" : {
                  "lat" : -25.4684983,
                  "lng" : -49.2905364
               }
            },
            "location" : {
               "lat" : -25.4625379,
               "lng" : -49.28889600000001
            },
            "location_type" : "APPROXIMATE",
            "viewport" : {
               "northeast" : {
                  "lat" : -25.4542317,
                  "lng" : -49.2847267
               },
               "southwest" : {
                  "lat" : -25.4684983,
                  "lng" : -49.2905364
               }
            }
         },
         "place_id" : "ChIJabIZNnvj3JQRk2Q-ht-SNdE",
         "types" : [ "postal_code" ]
      },
      {
         "address_components" : [
            {
               "long_name" : "80620",
               "short_name" : "80620",
               "types" : [ "postal_code", "postal_code_prefix" ]
            },
            {
               "long_name" : "Água Verde",
               "short_name" : "Água Verde",
               "types" : [ "political", "sublocality", "sublocality_level_1" ]
            },
            {
               "long_name" : "Curitiba",
               "short_name" : "Curitiba",
               "types" : [ "administrative_area_level_2", "political" ]
            },
            {
               "long_name" : "State of Paraná",
               "short_name" : "PR",
               "types" : [ "administrative_area_level_1", "political" ]
            },
            {
               "long_name" : "Brazil",
               "short_name" : "BR",
               "types" : [ "country", "political" ]
            }
         ],
         "formatted_address" : "Água Verde, Curitiba - State of Paraná, 80620, Brazil",
         "geometry" : {
            "bounds" : {
               "northeast" : {
                  "lat" : -25.4514451,
                  "lng" : -49.2747748
               },
               "southwest" : {
                  "lat" : -25.4680744,
                  "lng" : -49.2904692
               }
            },
            "location" : {
               "lat" : -25.461021,
               "lng" : -49.2816082
            },
            "location_type" : "APPROXIMATE",
            "viewport" : {
               "northeast" : {
                  "lat" : -25.4514451,
                  "lng" : -49.2747748
               },
               "southwest" : {
                  "lat" : -25.4680744,
                  "lng" : -49.2904692
               }
            }
         },
         "place_id" : "ChIJO5QUPILk3JQRi41oIgaJ0aA",
         "types" : [ "postal_code", "postal_code_prefix" ]
      },
      {
         "address_components" : [
            {
               "long_name" : "Água Verde",
               "short_name" : "Água Verde",
               "types" : [ "political", "sublocality", "sublocality_level_1" ]
            },
            {
               "long_name" : "Curitiba",
               "short_name" : "Curitiba",
               "types" : [ "administrative_area_level_2", "political" ]
            },
            {
               "long_name" : "State of Paraná",
               "short_name" : "PR",
               "types" : [ "administrative_area_level_1", "political" ]
            },
            {
               "long_name" : "Brazil",
               "short_name" : "BR",
               "types" : [ "country", "political" ]
            }
         ],
         "formatted_address" : "Água Verde, Curitiba - State of Paraná, Brazil",
         "geometry" : {
            "bounds" : {
               "northeast" : {
                  "lat" : -25.4413951,
                  "lng" : -49.2692237
               },
               "southwest" : {
                  "lat" : -25.4723105,
                  "lng" : -49.295465
               }
            },
            "location" : {
               "lat" : -25.4530706,
               "lng" : -49.2779229
            },
            "location_type" : "APPROXIMATE",
            "viewport" : {
               "northeast" : {
                  "lat" : -25.4413951,
                  "lng" : -49.2692237
               },
               "southwest" : {
                  "lat" : -25.4723105,
                  "lng" : -49.295465
               }
            }
         },
         "place_id" : "ChIJu5u-4IPk3JQRMe1H1myN_ao",
         "types" : [ "political", "sublocality", "sublocality_level_1" ]
      },
      {
         "address_components" : [
            {
               "long_name" : "Fazendinha/Portão",
               "short_name" : "Fazendinha/Portão",
               "types" : [ "administrative_area_level_4", "political" ]
            },
            {
               "long_name" : "Curitiba",
               "short_name" : "Curitiba",
               "types" : [ "administrative_area_level_2", "political" ]
            },
            {
               "long_name" : "State of Paraná",
               "short_name" : "PR",
               "types" : [ "administrative_area_level_1", "political" ]
            },
            {
               "long_name" : "Brazil",
               "short_name" : "BR",
               "types" : [ "country", "political" ]
            }
         ],
         "formatted_address" : "Fazendinha/Portão, Curitiba - State of Paraná, Brazil",
         "geometry" : {
            "bounds" : {
               "northeast" : {
                  "lat" : -25.4444595,
                  "lng" : -49.2535031
               },
               "southwest" : {
                  "lat" : -25.498184,
                  "lng" : -49.3374852
               }
            },
            "location" : {
               "lat" : -25.4677015,
               "lng" : -49.2942833
            },
            "location_type" : "APPROXIMATE",
            "viewport" : {
               "northeast" : {
                  "lat" : -25.4444595,
                  "lng" : -49.2535031
               },
               "southwest" : {
                  "lat" : -25.498184,
                  "lng" : -49.3374852
               }
            }
         },
         "place_id" : "ChIJxcb0Z33j3JQR0E2RWAWwwOw",
         "types" : [ "administrative_area_level_4", "political" ]
      },
      {
         "address_components" : [
            {
               "long_name" : "Curitiba",
               "short_name" : "Curitiba",
               "types" : [ "locality", "political" ]
            },
            {
               "long_name" : "Curitiba",
               "short_name" : "Curitiba",
               "types" : [ "administrative_area_level_2", "political" ]
            },
            {
               "long_name" : "State of Paraná",
               "short_name" : "PR",
               "types" : [ "administrative_area_level_1", "political" ]
            },
            {
               "long_name" : "Brazil",
               "short_name" : "BR",
               "types" : [ "country", "political" ]
            }
         ],
         "formatted_address" : "Curitiba, State of Paraná, Brazil",
         "geometry" : {
            "bounds" : {
               "northeast" : {
                  "lat" : -25.346995,
                  "lng" : -49.1897635
               },
               "southwest" : {
                  "lat" : -25.6432382,
                  "lng" : -49.38983289999999
               }
            },
            "location" : {
               "lat" : -25.4289541,
               "lng" : -49.267137
            },
            "location_type" : "APPROXIMATE",
            "viewport" : {
               "northeast" : {
                  "lat" : -25.346995,
                  "lng" : -49.1897635
               },
               "southwest" : {
                  "lat" : -25.6432382,
                  "lng" : -49.38983289999999
               }
            }
         },
         "place_id" : "ChIJ3bPNUVPj3JQRCejLuqVrL20",
         "types" : [ "locality", "political" ]
      },
      {
         "address_components" : [
            {
               "long_name" : "Curitiba",
               "short_name" : "Curitiba",
               "types" : [ "administrative_area_level_2", "political" ]
            },
            {
               "long_name" : "State of Paraná",
               "short_name" : "PR",
               "types" : [ "administrative_area_level_1", "political" ]
            },
            {
               "long_name" : "Brazil",
               "short_name" : "BR",
               "types" : [ "country", "political" ]
            }
         ],
         "formatted_address" : "Curitiba - State of Paraná, Brazil",
         "geometry" : {
            "bounds" : {
               "northeast" : {
                  "lat" : -25.346736,
                  "lng" : -49.18522489999999
               },
               "southwest" : {
                  "lat" : -25.6453862,
                  "lng" : -49.38933859999999
               }
            },
            "location" : {
               "lat" : -25.4808762,
               "lng" : -49.3044253
            },
            "location_type" : "APPROXIMATE",
            "viewport" : {
               "northeast" : {
                  "lat" : -25.346736,
                  "lng" : -49.18522489999999
               },
               "southwest" : {
                  "lat" : -25.6453862,
                  "lng" : -49.38933859999999
               }
            }
         },
         "place_id" : "ChIJ8Q8J_PXj3JQRR7crCbCDejw",
         "types" : [ "administrative_area_level_2", "political" ]
      },
      {
         "address_components" : [
            {
               "long_name" : "State of Paraná",
               "short_name" : "PR",
               "types" : [ "administrative_area_level_1", "political" ]
            },
            {
               "long_name" : "Brazil",
               "short_name" : "BR",
               "types" : [ "country", "political" ]
            }
         ],
         "formatted_address" : "State of Paraná, Brazil",
         "geometry" : {
            "bounds" : {
               "northeast" : {
                  "lat" : -22.5166644,
                  "lng" : -48.0235303
               },
               "southwest" : {
                  "lat" : -26.7172983,
                  "lng" : -54.6192979
               }
            },
            "location" : {
               "lat" : -25.2520888,
               "lng" : -52.0215415
            },
            "location_type" : "APPROXIMATE",
            "viewport" : {
               "northeast" : {
                  "lat" : -22.5166644,
                  "lng" : -48.0235303
               },
               "southwest" : {
                  "lat" : -26.7172983,
                  "lng" : -54.6192979
               }
            }
         },
         "place_id" : "ChIJnWK4MJQL25QRYfDOY1D9k-g",
         "types" : [ "administrative_area_level_1", "political" ]
      },
      {
         "address_components" : [
            {
               "long_name" : "Brazil",
               "short_name" : "BR",
               "types" : [ "country", "political" ]
            }
         ],
         "formatted_address" : "Brazil",
         "geometry" : {
            "bounds" : {
               "northeast" : {
                  "lat" : 5.2717863,
                  "lng" : -28.650543
               },
               "southwest" : {
                  "lat" : -34.0891,
                  "lng" : -73.9828169
               }
            },
            "location" : {
               "lat" : -14.235004,
               "lng" : -51.92528
            },
            "location_type" : "APPROXIMATE",
            "viewport" : {
               "northeast" : {
                  "lat" : 5.2717863,
                  "lng" : -28.650543
               },
               "southwest" : {
                  "lat" : -34.0891,
                  "lng" : -73.9828169
               }
            }
         },
         "place_id" : "ChIJzyjM68dZnAARYz4p8gYVWik",
         "types" : [ "country", "political" ]
      }
   ],
   "status" : "OK"
}
