{
   "plus_code" : {
      "compound_code" : "JP4W+F2 Curitiba, State of Paraná, Brazil",
      "global_code" : "586GJP4W+F2"
   },
   "results" : [
      {
         "address_components" : [
            {
               "long_name" : "39",
               "short_name" : "39",
               "types" : [ "street_number" ]
            },
            {
               "long_name" : "Rua Miguel Piekarski",
               "short_name" : "R. Miguel Piekarski",
               "types" : [ "route" ]
            },
            {
               "long_name" : "Boa Vista",
               "short_name" : "Boa Vista",
               "types" : [ "political", "sublocality", "sublocality_level_1" ]
            },
            {
               "long_name" : "Curitiba",
               "short_name" : "Curitiba",
               "types" : [ "administrative_area_level_2", "political" ]
            },
            {
               "long_name" : "Paraná",
               "short_name" : "PR",
               "types" : [ "administrative_area_level_1", "political" ]
            },
            {
               "long_name" : "Brazil",
               "short_name" : "BR",
               "types" : [ "country", "political" ]
            },
            {
               "long_name" : "82540-190",
               "short_name" : "82540-190",
               "types" : [ "postal_code" ]
            }
         ],
         "formatted_address" : "R. Miguel Piekarski, 39 - Boa Vista, Curitiba - PR, 82540-190, Brazil",
         "geometry" : {
            "location" : {
               "lat" : -25.393819,
               "lng" : -49.254862
            },
            "location_type" : "ROOFTOP",
            "viewport" : {
               "northeast" : {
                  "lat" : -25.3924700197085,
                  "lng" : -49.2535130197085
               },
               "southwest" : {
                  "lat" : -25.3951679802915,
                  "lng" : -49.2562109802915
               }
            }
         },
         "place_id" : "ChIJf-2uN5Dm3JQRQPAC9Ygji0w",
         "plus_code" : {
            "compound_code" : "JP4W+F3 Curitiba, State of Paraná, Brazil",
            "global_code" : "586GJP4W+F3"
         },
         "types" : [ "street_address" ]
      },
      {
         "address_components" : [
            {
               "long_name" : "2636",
               "short_name" : "2636",
               "types" : [ "street_number" ]
            },
            {
               "long_name" : "Rua Estados Unidos",
               "short_name" : "R. Estados Unidos",
               "types" : [ "route" ]
            },
            {
               "long_name" : "Bacacheri",
               "short_name" : "Bacacheri",
               "types" : [ "political", "sublocality", "sublocality_level_1" ]
            },
            {
               "long_name" : "Curitiba",
               "short_name" : "Curitiba",
               "types" : [ "administrative_area_level_2", "political" ]
            },
            {
               "long_name" : "Paraná",
               "short_name" : "PR",
               "types" : [ "administrative_area_level_1", "political" ]
            },
            {
               "long_name" : "Brazil",
               "short_name" : "BR",
               "types" : [ "country", "political" ]
            },
            {
               "long_name" : "82540-030",
               "short_name" : "82540-030",
               "types" : [ "postal_code" ]
            }
         ],
         "formatted_address" : "R. Estados Unidos, 2636 - Bacacheri, Curitiba - PR, 82540-030, Brazil",
         "geometry" : {
            "bounds" : {
               "northeast" : {
                  "lat" : -25.3936607,
                  "lng" : -49.2551932
               },
               "southwest" : {
                  "lat" : -25.3938707,
                  "lng" : -49.2554224
               }
            },
            "location" : {
               "lat" : -25.3937722,
               "lng" : -49.2552966
            },
            "location_type" : "ROOFTOP",
            "viewport" : {
               "northeast" : {
                  "lat" : -25.3924167197085,
                  "lng" : -49.2539588197085
               },
               "southwest" : {
                  "lat" : -25.3951146802915,
                  "lng" : -49.2566567802915
               }
            }
         },
         "place_id" : "ChIJ1Qb1S5Dm3JQRAgsUykU1SVs",
         "types" : [ "premise" ]
      },
      {
         "address_components" : [
            {
               "long_name" : "73",
               "short_name" : "73",
               "types" : [ "street_number" ]
            },
            {
               "long_name" : "Rua Miguel Piekarski",
               "short_name" : "R. Miguel Piekarski",
               "types" : [ "route" ]
            },
            {
               "long_name" : "Boa Vista",
               "short_name" : "Boa Vista",
               "types" : [ "political", "sublocality", "sublocality_level_1" ]
            },
            {
               "long_name" : "Curitiba",
               "short_name" : "Curitiba",
               "types" : [ "administrative_area_level_2", "political" ]
            },
            {
               "long_name" : "Paraná",
               "short_name" : "PR",
               "types" : [ "administrative_area_level_1", "political" ]
            },
            {
               "long_name" : "Brazil",
               "short_name" : "BR",
               "types" : [ "country", "political" ]
            },
            {
               "long_name" : "82540-190",
               "short_name" : "82540-190",
               "types" : [ "postal_code" ]
            }
         ],
         "formatted_address" : "R. Miguel Piekarski, 73 - Boa Vista, Curitiba - PR, 82540-190, Brazil",
         "geometry" : {
            "location" : {
               "lat" : -25.3936379,
               "lng" : -49.254675
            },
            "location_type" : "ROOFTOP",
            "viewport" : {
               "northeast" : {
                  "lat" : -25.3922889197085,
                  "lng" : -49.2533260197085
               },
               "southwest" : {
                  "lat" : -25.3949868802915,
                  "lng" : -49.2560239802915
               }
            }
         },
         "place_id" : "ChIJE95yMZDm3JQRiEN6itsKhq0",
         "plus_code" : {
            "compound_code" : "JP4W+G4 Curitiba, State of Paraná, Brazil",
            "global_code" : "586GJP4W+G4"
         },
         "types" : [ "establishment", "point_of_interest" ]
      },
      {
         "address_components" : [
            {
               "long_name" : "20",
               "short_name" : "20",
               "types" : [ "street_number" ]
            },
            {
               "long_name" : "Rua Miguel Piekarski",
               "short_name" : "R. Miguel Piekarski",
               "types" : [ "route" ]
            },
            {
               "long_name" : "Boa Vista",
               "short_name" : "Boa Vista",
               "types" : [ "political", "sublocality", "sublocality_level_1" ]
            },
            {
               "long_name" : "Curitiba",
               "short_name" : "Curitiba",
               "types" : [ "administrative_area_level_2", "political" ]
            },
            {
               "long_name" : "Paraná",
               "short_name" : "PR",
               "types" : [ "administrative_area_level_1", "political" ]
            },
            {
               "long_name" : "Brazil",
               "short_name" : "BR",
               "types" : [ "country", "political" ]
            },
            {
               "long_name" : "82540-190",
               "short_name" : "82540-190",
               "types" : [ "postal_code" ]
            }
         ],
         "formatted_address" : "R. Miguel Piekarski, 20 - Boa Vista, Curitiba - PR, 82540-190, Brazil",
         "geometry" : {
            "location" : {
               "lat" : -25.39393,
               "lng" : -49.2548034
            },
            "location_type" : "RANGE_INTERPOLATED",
            "viewport" : {
               "northeast" : {
                  "lat" : -25.39258101970849,
                  "lng" : -49.2534544197085
               },
               "southwest" : {
                  "lat" : -25.3952789802915,
                  "lng" : -49.2561523802915
               }
            }
         },
         "place_id" : "EkVSLiBNaWd1ZWwgUGlla2Fyc2tpLCAyMCAtIEJvYSBWaXN0YSwgQ3VyaXRpYmEgLSBQUiwgODI1NDAtMTkwLCBCcmF6aWwiGhIYChQKEglj-3IxkObclBHEksogtbgOGRAU",
         "types" : [ "street_address" ]
      },
      {
         "address_components" : [
            {
               "long_name" : "2-68",
               "short_name" : "2-68",
               "types" : [ "street_number" ]
            },
            {
               "long_name" : "Rua Miguel Piekarski",
               "short_name" : "R. Miguel Piekarski",
               "types" : [ "route" ]
            },
            {
               "long_name" : "Boa Vista",
               "short_name" : "Boa Vista",
               "types" : [ "political", "sublocality", "sublocality_level_1" ]
            },
            {
               "long_name" : "Curitiba",
               "short_name" : "Curitiba",
               "types" : [ "administrative_area_level_2", "political" ]
            },
            {
               "long_name" : "Paraná",
               "short_name" : "PR",
               "types" : [ "administrative_area_level_1", "political" ]
            },
            {
               "long_name" : "Brazil",
               "short_name" : "BR",
               "types" : [ "country", "political" ]
            },
            {
               "long_name" : "82540-190",
               "short_name" : "82540-190",
               "types" : [ "postal_code" ]
            }
         ],
         "formatted_address" : "R. Miguel Piekarski, 2-68 - Boa Vista, Curitiba - PR, 82540-190, Brazil",
         "geometry" : {
            "bounds" : {
               "northeast" : {
                  "lat" : -25.3937089,
                  "lng" : -49.25460690000001
               },
               "southwest" : {
                  "lat" : -25.3942112,
                  "lng" : -49.2550535
               }
            },
            "location" : {
               "lat" : -25.3939601,
               "lng" : -49.2548302
            },
            "location_type" : "GEOMETRIC_CENTER",
            "viewport" : {
               "northeast" : {
                  "lat" : -25.3926110697085,
                  "lng" : -49.2534812197085
               },
               "southwest" : {
                  "lat" : -25.3953090302915,
                  "lng" : -49.2561791802915
               }
            }
         },
         "place_id" : "ChIJY_tyMZDm3JQRxJLKILW4Dhk",
         "types" : [ "route" ]
      },
      {
         "address_components" : [
            {
               "long_name" : "82540-190",
               "short_name" : "82540-190",
               "types" : [ "postal_code" ]
            },
            {
               "long_name" : "Boa Vista",
               "short_name" : "Boa Vista",
               "types" : [ "political", "sublocality", "sublocality_level_1" ]
            },
            {
               "long_name" : "Curitiba",
               "short_name" : "Curitiba",
               "types" : [ "administrative_area_level_2", "political" ]
            },
            {
               "long_name" : "State of Paraná",
               "short_name" : "PR",
               "types" : [ "administrative_area_level_1", "political" ]
            },
            {
               "long_name" : "Brazil",
               "short_name" : "BR",
               "types" : [ "country", "political" ]
            }
         ],
         "formatted_address" : "Boa Vista, Curitiba - State of Paraná, 82540-190, Brazil",
         "geometry" : {
            "bounds" : {
               "northeast" : {
                  "lat" : -25.3888898,
                  "lng" : -49.2501608
               },
               "southwest" : {
                  "lat" : -25.3942512,
                  "lng" : -49.2550582
               }
            },
            "location" : {
               "lat" : -25.3925904,
               "lng" : -49.2534162
            },
            "location_type" : "APPROXIMATE",
            "viewport" : {
               "northeast" : {
                  "lat" : -25.3888898,
                  "lng" : -49.2501608
               },
               "southwest" : {
                  "lat" : -25.3942512,
                  "lng" : -49.2550582
               }
            }
         },
         "place_id" : "ChIJB1pbe47m3JQRTBLgnSSitqI",
         "types" : [ "postal_code" ]
      },
      {
         "address_components" : [
            {
               "long_name" : "82540",
               "short_name" : "82540",
               "types" : [ "postal_code", "postal_code_prefix" ]
            },
            {
               "long_name" : "Boa Vista",
               "short_name" : "Boa Vista",
               "types" : [ "political", "sublocality", "sublocality_level_1" ]
            },
            {
               "long_name" : "Curitiba",
               "short_name" : "Curitiba",
               "types" : [ "administrative_area_level_2", "political" ]
            },
            {
               "long_name" : "State of Paraná",
               "short_name" : "PR",
               "types" : [ "administrative_area_level_1", "political" ]
            },
            {
               "long_name" : "Brazil",
               "short_name" : "BR",
               "types" : [ "country", "political" ]
            }
         ],
         "formatted_address" : "Boa Vista, Curitiba - State of Paraná, 82540, Brazil",
         "geometry" : {
            "bounds" : {
               "northeast" : {
                  "lat" : -25.3846157,
                  "lng" : -49.2441374
               },
               "southwest" : {
                  "lat" : -25.3985179,
                  "lng" : -49.2616356
               }
            },
            "location" : {
               "lat" : -25.3922016,
               "lng" : -49.2549997
            },
            "location_type" : "APPROXIMATE",
            "viewport" : {
               "northeast" : {
                  "lat" : -25.3846157,
                  "lng" : -49.2441374
               },
               "southwest" : {
                  "lat" : -25.3985179,
                  "lng" : -49.2616356
               }
            }
         },
         "place_id" : "ChIJ9WmWPY7m3JQRYyW6V2XPGQw",
         "types" : [ "postal_code", "postal_code_prefix" ]
      },
      {
         "address_components" : [
            {
               "long_name" : "Boa Vista",
               "short_name" : "Boa Vista",
               "types" : [ "political", "sublocality", "sublocality_level_1" ]
            },
            {
               "long_name" : "Curitiba",
               "short_name" : "Curitiba",
               "types" : [ "administrative_area_level_2", "political" ]
            },
            {
               "long_name" : "State of Paraná",
               "short_name" : "PR",
               "types" : [ "administrative_area_level_1", "political" ]
            },
            {
               "long_name" : "Brazil",
               "short_name" : "BR",
               "types" : [ "country", "political" ]
            }
         ],
         "formatted_address" : "Boa Vista, Curitiba - State of Paraná, Brazil",
         "geometry" : {
            "bounds" : {
               "northeast" : {
                  "lat" : -25.3716464,
                  "lng" : -49.2323934
               },
               "southwest" : {
                  "lat" : -25.4010466,
                  "lng" : -49.2616416
               }
            },
            "location" : {
               "lat" : -25.388446,
               "lng" : -49.2436556
            },
            "location_type" : "APPROXIMATE",
            "viewport" : {
               "northeast" : {
                  "lat" : -25.3716464,
                  "lng" : -49.2323934
               },
               "southwest" : {
                  "lat" : -25.4010466,
                  "lng" : -49.2616416
               }
            }
         },
         "place_id" : "ChIJxxscpYvm3JQRx9mRflxCxZw",
         "types" : [ "political", "sublocality", "sublocality_level_1" ]
      },
      {
         "address_components" : [
            {
               "long_name" : "Boa Vista",
               "short_name" : "Boa Vista",
               "types" : [ "administrative_area_level_4", "political" ]
            },
            {
               "long_name" : "Curitiba",
               "short_name" : "Curitiba",
               "types" : [ "administrative_area_level_2", "political" ]
            },
            {
               "long_name" : "State of Paraná",
               "short_name" : "PR",
               "types" : [ "administrative_area_level_1", "political" ]
            },
            {
               "long_name" : "Brazil",
               "short_name" : "BR",
               "types" : [ "country", "political" ]
            }
         ],
         "formatted_address" : "Boa Vista, Curitiba - State of Paraná, Brazil",
         "geometry" : {
            "bounds" : {
               "northeast" : {
                  "lat" : -25.346995,
                  "lng" : -49.1914303
               },
               "southwest" : {
                  "lat" : -25.4313697,
                  "lng" : -49.2815916
               }
            },
            "location" : {
               "lat" : -25.3886823,
               "lng" : -49.2334685
            },
            "location_type" : "APPROXIMATE",
            "viewport" : {
               "northeast" : {
                  "lat" : -25.346995,
                  "lng" : -49.1914303
               },
               "southwest" : {
                  "lat" : -25.4313697,
                  "lng" : -49.2815916
               }
            }
         },
         "place_id" : "ChIJ4yXhiYjm3JQRib7FMdA38u0",
         "types" : [ "administrative_area_level_4", "political" ]
      },
      {
         "address_components" : [
            {
               "long_name" : "Curitiba",
               "short_name" : "Curitiba",
               "types" : [ "locality", "political" ]
            },
            {
               "long_name" : "Curitiba",
               "short_name" : "Curitiba",
               "types" : [ "administrative_area_level_2", "political" ]
            },
            {
               "long_name" : "State of Paraná",
               "short_name" : "PR",
               "types" : [ "administrative_area_level_1", "political" ]
            },
            {
               "long_name" : "Brazil",
               "short_name" : "BR",
               "types" : [ "country", "political" ]
            }
         ],
         "formatted_address" : "Curitiba, State of Paraná, Brazil",
         "geometry" : {
            "bounds" : {
               "northeast" : {
                  "lat" : -25.346995,
                  "lng" : -49.1897635
               },
               "southwest" : {
                  "lat" : -25.6432382,
                  "lng" : -49.38983289999999
               }
            },
            "location" : {
               "lat" : -25.4289541,
               "lng" : -49.267137
            },
            "location_type" : "APPROXIMATE",
            "viewport" : {
               "northeast" : {
                  "lat" : -25.346995,
                  "lng" : -49.1897635
               },
               "southwest" : {
                  "lat" : -25.6432382,
                  "lng" : -49.38983289999999
               }
            }
         },
         "place_id" : "ChIJ3bPNUVPj3JQRCejLuqVrL20",
         "types" : [ "locality", "political" ]
      },
      {
         "address_components" : [
            {
               "long_name" : "Curitiba",
               "short_name" : "Curitiba",
               "types" : [ "administrative_area_level_2", "political" ]
            },
            {
               "long_name" : "State of Paraná",
               "short_name" : "PR",
               "types" : [ "administrative_area_level_1", "political" ]
            },
            {
               "long_name" : "Brazil",
               "short_name" : "BR",
               "types" : [ "country", "political" ]
            }
         ],
         "formatted_address" : "Curitiba - State of Paraná, Brazil",
         "geometry" : {
            "bounds" : {
               "northeast" : {
                  "lat" : -25.346736,
                  "lng" : -49.18522489999999
               },
               "southwest" : {
                  "lat" : -25.6453862,
                  "lng" : -49.38933859999999
               }
            },
            "location" : {
               "lat" : -25.4808762,
               "lng" : -49.3044253
            },
            "location_type" : "APPROXIMATE",
            "viewport" : {
               "northeast" : {
                  "lat" : -25.346736,
                  "lng" : -49.18522489999999
               },
               "southwest" : {
                  "lat" : -25.6453862,
                  "lng" : -49.38933859999999
               }
            }
         },
         "place_id" : "ChIJ8Q8J_PXj3JQRR7crCbCDejw",
         "types" : [ "administrative_area_level_2", "political" ]
      },
      {
         "address_components" : [
            {
               "long_name" : "State of Paraná",
               "short_name" : "PR",
               "types" : [ "administrative_area_level_1", "political" ]
            },
            {
               "long_name" : "Brazil",
               "short_name" : "BR",
               "types" : [ "country", "political" ]
            }
         ],
         "formatted_address" : "State of Paraná, Brazil",
         "geometry" : {
            "bounds" : {
               "northeast" : {
                  "lat" : -22.5166644,
                  "lng" : -48.0235303
               },
               "southwest" : {
                  "lat" : -26.7172983,
                  "lng" : -54.6192979
               }
            },
            "location" : {
               "lat" : -25.2520888,
               "lng" : -52.0215415
            },
            "location_type" : "APPROXIMATE",
            "viewport" : {
               "northeast" : {
                  "lat" : -22.5166644,
                  "lng" : -48.0235303
               },
               "southwest" : {
                  "lat" : -26.7172983,
                  "lng" : -54.6192979
               }
            }
         },
         "place_id" : "ChIJnWK4MJQL25QRYfDOY1D9k-g",
         "types" : [ "administrative_area_level_1", "political" ]
      },
      {
         "address_components" : [
            {
               "long_name" : "Brazil",
               "short_name" : "BR",
               "types" : [ "country", "political" ]
            }
         ],
         "formatted_address" : "Brazil",
         "geometry" : {
            "bounds" : {
               "northeast" : {
                  "lat" : 5.2717863,
                  "lng" : -28.650543
               },
               "southwest" : {
                  "lat" : -34.0891,
                  "lng" : -73.9828169
               }
            },
            "location" : {
               "lat" : -14.235004,
               "lng" : -51.92528
            },
            "location_type" : "APPROXIMATE",
            "viewport" : {
               "northeast" : {
                  "lat" : 5.2717863,
                  "lng" : -28.650543
               },
               "southwest" : {
                  "lat" : -34.0891,
                  "lng" : -73.9828169
               }
            }
         },
         "place_id" : "ChIJzyjM68dZnAARYz4p8gYVWik",
         "types" : [ "country", "political" ]
      }
   ],
   "status" : "OK"
}
