{
   "plus_code" : {
      "compound_code" : "JP63+H4 Curitiba, State of Paraná, Brazil",
      "global_code" : "586GJP63+H4"
   },
   "results" : [
      {
         "address_components" : [
            {
               "long_name" : "295",
               "short_name" : "295",
               "types" : [ "street_number" ]
            },
            {
               "long_name" : "Rua Alvaro Moleta",
               "short_name" : "Rua Alvaro Moleta",
               "types" : [ "route" ]
            },
            {
               "long_name" : "Pilarzinho",
               "short_name" : "Pilarzinho",
               "types" : [ "political", "sublocality", "sublocality_level_1" ]
            },
            {
               "long_name" : "Curitiba",
               "short_name" : "Curitiba",
               "types" : [ "administrative_area_level_2", "political" ]
            },
            {
               "long_name" : "Paraná",
               "short_name" : "PR",
               "types" : [ "administrative_area_level_1", "political" ]
            },
            {
               "long_name" : "Brazil",
               "short_name" : "BR",
               "types" : [ "country", "political" ]
            },
            {
               "long_name" : "82110-190",
               "short_name" : "82110-190",
               "types" : [ "postal_code" ]
            }
         ],
         "formatted_address" : "Rua Alvaro Moleta, 295 - Pilarzinho, Curitiba - PR, 82110-190, Brazil",
         "geometry" : {
            "location" : {
               "lat" : -25.388496,
               "lng" : -49.297201
            },
            "location_type" : "ROOFTOP",
            "viewport" : {
               "northeast" : {
                  "lat" : -25.3871470197085,
                  "lng" : -49.29585201970851
               },
               "southwest" : {
                  "lat" : -25.3898449802915,
                  "lng" : -49.2985499802915
               }
            }
         },
         "place_id" : "ChIJ_7-l5CTh3JQRdFgOz77mfmA",
         "plus_code" : {
            "compound_code" : "JP63+J4 Curitiba, State of Paraná, Brazil",
            "global_code" : "586GJP63+J4"
         },
         "types" : [ "street_address" ]
      },
      {
         "address_components" : [
            {
               "long_name" : "503",
               "short_name" : "503",
               "types" : [ "street_number" ]
            },
            {
               "long_name" : "Rua Alvaro Moleta",
               "short_name" : "Rua Alvaro Moleta",
               "types" : [ "route" ]
            },
            {
               "long_name" : "Pilarzinho",
               "short_name" : "Pilarzinho",
               "types" : [ "political", "sublocality", "sublocality_level_1" ]
            },
            {
               "long_name" : "Curitiba",
               "short_name" : "Curitiba",
               "types" : [ "administrative_area_level_2", "political" ]
            },
            {
               "long_name" : "Paraná",
               "short_name" : "PR",
               "types" : [ "administrative_area_level_1", "political" ]
            },
            {
               "long_name" : "Brazil",
               "short_name" : "BR",
               "types" : [ "country", "political" ]
            },
            {
               "long_name" : "82110-190",
               "short_name" : "82110-190",
               "types" : [ "postal_code" ]
            }
         ],
         "formatted_address" : "Rua Alvaro Moleta, 503 - Pilarzinho, Curitiba - PR, 82110-190, Brazil",
         "geometry" : {
            "location" : {
               "lat" : -25.3884077,
               "lng" : -49.2972662
            },
            "location_type" : "ROOFTOP",
            "viewport" : {
               "northeast" : {
                  "lat" : -25.3870587197085,
                  "lng" : -49.2959172197085
               },
               "southwest" : {
                  "lat" : -25.3897566802915,
                  "lng" : -49.2986151802915
               }
            }
         },
         "place_id" : "ChIJe1TT4STh3JQRMYnS4pJivHc",
         "plus_code" : {
            "compound_code" : "JP63+J3 Pilarzinho, Curitiba - State of Paraná, Brazil",
            "global_code" : "586GJP63+J3"
         },
         "types" : [ "church", "establishment", "place_of_worship", "point_of_interest" ]
      },
      {
         "address_components" : [
            {
               "long_name" : "319",
               "short_name" : "319",
               "types" : [ "street_number" ]
            },
            {
               "long_name" : "Rua Alvaro Moleta",
               "short_name" : "Rua Alvaro Moleta",
               "types" : [ "route" ]
            },
            {
               "long_name" : "Pilarzinho",
               "short_name" : "Pilarzinho",
               "types" : [ "political", "sublocality", "sublocality_level_1" ]
            },
            {
               "long_name" : "Curitiba",
               "short_name" : "Curitiba",
               "types" : [ "administrative_area_level_2", "political" ]
            },
            {
               "long_name" : "Paraná",
               "short_name" : "PR",
               "types" : [ "administrative_area_level_1", "political" ]
            },
            {
               "long_name" : "Brazil",
               "short_name" : "BR",
               "types" : [ "country", "political" ]
            },
            {
               "long_name" : "82110-190",
               "short_name" : "82110-190",
               "types" : [ "postal_code" ]
            }
         ],
         "formatted_address" : "Rua Alvaro Moleta, 319 - Pilarzinho, Curitiba - PR, 82110-190, Brazil",
         "geometry" : {
            "bounds" : {
               "northeast" : {
                  "lat" : -25.3883257,
                  "lng" : -49.297379
               },
               "southwest" : {
                  "lat" : -25.388446,
                  "lng" : -49.297525
               }
            },
            "location" : {
               "lat" : -25.3883778,
               "lng" : -49.2974723
            },
            "location_type" : "ROOFTOP",
            "viewport" : {
               "northeast" : {
                  "lat" : -25.3870368697085,
                  "lng" : -49.2961030197085
               },
               "southwest" : {
                  "lat" : -25.3897348302915,
                  "lng" : -49.2988009802915
               }
            }
         },
         "place_id" : "ChIJa6if8CTh3JQRMuaYNglNNdM",
         "types" : [ "premise" ]
      },
      {
         "address_components" : [
            {
               "long_name" : "286",
               "short_name" : "286",
               "types" : [ "street_number" ]
            },
            {
               "long_name" : "Rua Alvaro Moleta",
               "short_name" : "Rua Alvaro Moleta",
               "types" : [ "route" ]
            },
            {
               "long_name" : "Pilarzinho",
               "short_name" : "Pilarzinho",
               "types" : [ "political", "sublocality", "sublocality_level_1" ]
            },
            {
               "long_name" : "Curitiba",
               "short_name" : "Curitiba",
               "types" : [ "administrative_area_level_2", "political" ]
            },
            {
               "long_name" : "Paraná",
               "short_name" : "PR",
               "types" : [ "administrative_area_level_1", "political" ]
            },
            {
               "long_name" : "Brazil",
               "short_name" : "BR",
               "types" : [ "country", "political" ]
            },
            {
               "long_name" : "82110-190",
               "short_name" : "82110-190",
               "types" : [ "postal_code" ]
            }
         ],
         "formatted_address" : "Rua Alvaro Moleta, 286 - Pilarzinho, Curitiba - PR, 82110-190, Brazil",
         "geometry" : {
            "location" : {
               "lat" : -25.3885079,
               "lng" : -49.2971414
            },
            "location_type" : "RANGE_INTERPOLATED",
            "viewport" : {
               "northeast" : {
                  "lat" : -25.3871589197085,
                  "lng" : -49.2957924197085
               },
               "southwest" : {
                  "lat" : -25.3898568802915,
                  "lng" : -49.2984903802915
               }
            }
         },
         "place_id" : "EkVSdWEgQWx2YXJvIE1vbGV0YSwgMjg2IC0gUGlsYXJ6aW5obywgQ3VyaXRpYmEgLSBQUiwgODIxMTAtMTkwLCBCcmF6aWwiGxIZChQKEglfqGhYJOHclBHIPYyls2GA6RCeAg",
         "types" : [ "street_address" ]
      },
      {
         "address_components" : [
            {
               "long_name" : "256-600",
               "short_name" : "256-600",
               "types" : [ "street_number" ]
            },
            {
               "long_name" : "Rua Alvaro Moleta",
               "short_name" : "Rua Alvaro Moleta",
               "types" : [ "route" ]
            },
            {
               "long_name" : "Pilarzinho",
               "short_name" : "Pilarzinho",
               "types" : [ "political", "sublocality", "sublocality_level_1" ]
            },
            {
               "long_name" : "Curitiba",
               "short_name" : "Curitiba",
               "types" : [ "administrative_area_level_2", "political" ]
            },
            {
               "long_name" : "Paraná",
               "short_name" : "PR",
               "types" : [ "administrative_area_level_1", "political" ]
            },
            {
               "long_name" : "Brazil",
               "short_name" : "BR",
               "types" : [ "country", "political" ]
            },
            {
               "long_name" : "82110-190",
               "short_name" : "82110-190",
               "types" : [ "postal_code" ]
            }
         ],
         "formatted_address" : "Rua Alvaro Moleta, 256-600 - Pilarzinho, Curitiba - PR, 82110-190, Brazil",
         "geometry" : {
            "bounds" : {
               "northeast" : {
                  "lat" : -25.3871532,
                  "lng" : -49.2968406
               },
               "southwest" : {
                  "lat" : -25.3888665,
                  "lng" : -49.2982752
               }
            },
            "location" : {
               "lat" : -25.3880103,
               "lng" : -49.2975586
            },
            "location_type" : "GEOMETRIC_CENTER",
            "viewport" : {
               "northeast" : {
                  "lat" : -25.3866608697085,
                  "lng" : -49.2962089197085
               },
               "southwest" : {
                  "lat" : -25.3893588302915,
                  "lng" : -49.2989068802915
               }
            }
         },
         "place_id" : "ChIJX6hoWCTh3JQRyD2MpbNhgOk",
         "types" : [ "route" ]
      },
      {
         "address_components" : [
            {
               "long_name" : "82110-190",
               "short_name" : "82110-190",
               "types" : [ "postal_code" ]
            },
            {
               "long_name" : "Pilarzinho",
               "short_name" : "Pilarzinho",
               "types" : [ "political", "sublocality", "sublocality_level_1" ]
            },
            {
               "long_name" : "Curitiba",
               "short_name" : "Curitiba",
               "types" : [ "administrative_area_level_2", "political" ]
            },
            {
               "long_name" : "State of Paraná",
               "short_name" : "PR",
               "types" : [ "administrative_area_level_1", "political" ]
            },
            {
               "long_name" : "Brazil",
               "short_name" : "BR",
               "types" : [ "country", "political" ]
            }
         ],
         "formatted_address" : "Pilarzinho, Curitiba - State of Paraná, 82110-190, Brazil",
         "geometry" : {
            "bounds" : {
               "northeast" : {
                  "lat" : -25.3868877,
                  "lng" : -49.2953288
               },
               "southwest" : {
                  "lat" : -25.3907023,
                  "lng" : -49.2982842
               }
            },
            "location" : {
               "lat" : -25.3889202,
               "lng" : -49.29697710000001
            },
            "location_type" : "APPROXIMATE",
            "viewport" : {
               "northeast" : {
                  "lat" : -25.3868877,
                  "lng" : -49.2953288
               },
               "southwest" : {
                  "lat" : -25.3907023,
                  "lng" : -49.2982842
               }
            }
         },
         "place_id" : "ChIJBf56WCTh3JQRY8D3xzKX1Wk",
         "types" : [ "postal_code" ]
      },
      {
         "address_components" : [
            {
               "long_name" : "82110",
               "short_name" : "82110",
               "types" : [ "postal_code", "postal_code_prefix" ]
            },
            {
               "long_name" : "Pilarzinho",
               "short_name" : "Pilarzinho",
               "types" : [ "political", "sublocality", "sublocality_level_1" ]
            },
            {
               "long_name" : "Almirante Tamandaré",
               "short_name" : "Almirante Tamandaré",
               "types" : [ "administrative_area_level_2", "political" ]
            },
            {
               "long_name" : "State of Paraná",
               "short_name" : "PR",
               "types" : [ "administrative_area_level_1", "political" ]
            },
            {
               "long_name" : "Brazil",
               "short_name" : "BR",
               "types" : [ "country", "political" ]
            }
         ],
         "formatted_address" : "Pilarzinho, Almirante Tamandaré - State of Paraná, 82110, Brazil",
         "geometry" : {
            "bounds" : {
               "northeast" : {
                  "lat" : -25.3817895,
                  "lng" : -49.2873896
               },
               "southwest" : {
                  "lat" : -25.3996833,
                  "lng" : -49.30695619999999
               }
            },
            "location" : {
               "lat" : -25.3877968,
               "lng" : -49.29681859999999
            },
            "location_type" : "APPROXIMATE",
            "viewport" : {
               "northeast" : {
                  "lat" : -25.3817895,
                  "lng" : -49.2873896
               },
               "southwest" : {
                  "lat" : -25.3996833,
                  "lng" : -49.30695619999999
               }
            }
         },
         "place_id" : "ChIJxYS3Ljvh3JQRst2CibhVDbs",
         "types" : [ "postal_code", "postal_code_prefix" ]
      },
      {
         "address_components" : [
            {
               "long_name" : "Pilarzinho",
               "short_name" : "Pilarzinho",
               "types" : [ "political", "sublocality", "sublocality_level_1" ]
            },
            {
               "long_name" : "Curitiba",
               "short_name" : "Curitiba",
               "types" : [ "administrative_area_level_2", "political" ]
            },
            {
               "long_name" : "State of Paraná",
               "short_name" : "PR",
               "types" : [ "administrative_area_level_1", "political" ]
            },
            {
               "long_name" : "Brazil",
               "short_name" : "BR",
               "types" : [ "country", "political" ]
            }
         ],
         "formatted_address" : "Pilarzinho, Curitiba - State of Paraná, Brazil",
         "geometry" : {
            "bounds" : {
               "northeast" : {
                  "lat" : -25.3750081,
                  "lng" : -49.2711122
               },
               "southwest" : {
                  "lat" : -25.4041924,
                  "lng" : -49.3052765
               }
            },
            "location" : {
               "lat" : -25.39629,
               "lng" : -49.2875992
            },
            "location_type" : "APPROXIMATE",
            "viewport" : {
               "northeast" : {
                  "lat" : -25.3750081,
                  "lng" : -49.2711122
               },
               "southwest" : {
                  "lat" : -25.4041924,
                  "lng" : -49.3052765
               }
            }
         },
         "place_id" : "ChIJWQuM6zPh3JQR1_AE4OwV5jU",
         "types" : [ "political", "sublocality", "sublocality_level_1" ]
      },
      {
         "address_components" : [
            {
               "long_name" : "Curitiba",
               "short_name" : "Curitiba",
               "types" : [ "locality", "political" ]
            },
            {
               "long_name" : "Curitiba",
               "short_name" : "Curitiba",
               "types" : [ "administrative_area_level_2", "political" ]
            },
            {
               "long_name" : "State of Paraná",
               "short_name" : "PR",
               "types" : [ "administrative_area_level_1", "political" ]
            },
            {
               "long_name" : "Brazil",
               "short_name" : "BR",
               "types" : [ "country", "political" ]
            }
         ],
         "formatted_address" : "Curitiba, State of Paraná, Brazil",
         "geometry" : {
            "bounds" : {
               "northeast" : {
                  "lat" : -25.346995,
                  "lng" : -49.1897635
               },
               "southwest" : {
                  "lat" : -25.6432382,
                  "lng" : -49.38983289999999
               }
            },
            "location" : {
               "lat" : -25.4289541,
               "lng" : -49.267137
            },
            "location_type" : "APPROXIMATE",
            "viewport" : {
               "northeast" : {
                  "lat" : -25.346995,
                  "lng" : -49.1897635
               },
               "southwest" : {
                  "lat" : -25.6432382,
                  "lng" : -49.38983289999999
               }
            }
         },
         "place_id" : "ChIJ3bPNUVPj3JQRCejLuqVrL20",
         "types" : [ "locality", "political" ]
      },
      {
         "address_components" : [
            {
               "long_name" : "Curitiba",
               "short_name" : "Curitiba",
               "types" : [ "administrative_area_level_2", "political" ]
            },
            {
               "long_name" : "State of Paraná",
               "short_name" : "PR",
               "types" : [ "administrative_area_level_1", "political" ]
            },
            {
               "long_name" : "Brazil",
               "short_name" : "BR",
               "types" : [ "country", "political" ]
            }
         ],
         "formatted_address" : "Curitiba - State of Paraná, Brazil",
         "geometry" : {
            "bounds" : {
               "northeast" : {
                  "lat" : -25.346736,
                  "lng" : -49.18522489999999
               },
               "southwest" : {
                  "lat" : -25.6453862,
                  "lng" : -49.38933859999999
               }
            },
            "location" : {
               "lat" : -25.4808762,
               "lng" : -49.3044253
            },
            "location_type" : "APPROXIMATE",
            "viewport" : {
               "northeast" : {
                  "lat" : -25.346736,
                  "lng" : -49.18522489999999
               },
               "southwest" : {
                  "lat" : -25.6453862,
                  "lng" : -49.38933859999999
               }
            }
         },
         "place_id" : "ChIJ8Q8J_PXj3JQRR7crCbCDejw",
         "types" : [ "administrative_area_level_2", "political" ]
      },
      {
         "address_components" : [
            {
               "long_name" : "State of Paraná",
               "short_name" : "PR",
               "types" : [ "administrative_area_level_1", "political" ]
            },
            {
               "long_name" : "Brazil",
               "short_name" : "BR",
               "types" : [ "country", "political" ]
            }
         ],
         "formatted_address" : "State of Paraná, Brazil",
         "geometry" : {
            "bounds" : {
               "northeast" : {
                  "lat" : -22.5166644,
                  "lng" : -48.0235303
               },
               "southwest" : {
                  "lat" : -26.7172983,
                  "lng" : -54.6192979
               }
            },
            "location" : {
               "lat" : -25.2520888,
               "lng" : -52.0215415
            },
            "location_type" : "APPROXIMATE",
            "viewport" : {
               "northeast" : {
                  "lat" : -22.5166644,
                  "lng" : -48.0235303
               },
               "southwest" : {
                  "lat" : -26.7172983,
                  "lng" : -54.6192979
               }
            }
         },
         "place_id" : "ChIJnWK4MJQL25QRYfDOY1D9k-g",
         "types" : [ "administrative_area_level_1", "political" ]
      },
      {
         "address_components" : [
            {
               "long_name" : "Brazil",
               "short_name" : "BR",
               "types" : [ "country", "political" ]
            }
         ],
         "formatted_address" : "Brazil",
         "geometry" : {
            "bounds" : {
               "northeast" : {
                  "lat" : 5.2717863,
                  "lng" : -28.650543
               },
               "southwest" : {
                  "lat" : -34.0891,
                  "lng" : -73.9828169
               }
            },
            "location" : {
               "lat" : -14.235004,
               "lng" : -51.92528
            },
            "location_type" : "APPROXIMATE",
            "viewport" : {
               "northeast" : {
                  "lat" : 5.2717863,
                  "lng" : -28.650543
               },
               "southwest" : {
                  "lat" : -34.0891,
                  "lng" : -73.9828169
               }
            }
         },
         "place_id" : "ChIJzyjM68dZnAARYz4p8gYVWik",
         "types" : [ "country", "political" ]
      }
   ],
   "status" : "OK"
}
