{
   "plus_code" : {
      "compound_code" : "JQG9+Q6 Curitiba, State of Paraná, Brazil",
      "global_code" : "586GJQG9+Q6"
   },
   "results" : [
      {
         "address_components" : [
            {
               "long_name" : "91",
               "short_name" : "91",
               "types" : [ "street_number" ]
            },
            {
               "long_name" : "Rua Professor Loureiro Fernandes",
               "short_name" : "R. Prof. Loureiro Fernandes",
               "types" : [ "route" ]
            },
            {
               "long_name" : "Santa Cândida",
               "short_name" : "Santa Cândida",
               "types" : [ "political", "sublocality", "sublocality_level_1" ]
            },
            {
               "long_name" : "Curitiba",
               "short_name" : "Curitiba",
               "types" : [ "administrative_area_level_2", "political" ]
            },
            {
               "long_name" : "Paraná",
               "short_name" : "PR",
               "types" : [ "administrative_area_level_1", "political" ]
            },
            {
               "long_name" : "Brazil",
               "short_name" : "BR",
               "types" : [ "country", "political" ]
            },
            {
               "long_name" : "82640-020",
               "short_name" : "82640-020",
               "types" : [ "postal_code" ]
            }
         ],
         "formatted_address" : "R. Prof. Loureiro Fernandes, 91 - Santa Cândida, Curitiba - PR, 82640-020, Brazil",
         "geometry" : {
            "location" : {
               "lat" : -25.372262,
               "lng" : -49.231822
            },
            "location_type" : "ROOFTOP",
            "viewport" : {
               "northeast" : {
                  "lat" : -25.3709130197085,
                  "lng" : -49.2304730197085
               },
               "southwest" : {
                  "lat" : -25.3736109802915,
                  "lng" : -49.2331709802915
               }
            }
         },
         "place_id" : "ChIJ2zxJk0Tm3JQRQtbtNbtykmw",
         "plus_code" : {
            "compound_code" : "JQH9+37 Curitiba, State of Paraná, Brazil",
            "global_code" : "586GJQH9+37"
         },
         "types" : [ "street_address" ]
      },
      {
         "address_components" : [
            {
               "long_name" : "450",
               "short_name" : "450",
               "types" : [ "street_number" ]
            },
            {
               "long_name" : "Rua Major Saúl de Carvalho Chaves",
               "short_name" : "R. Maj. Saúl de Carvalho Chaves",
               "types" : [ "route" ]
            },
            {
               "long_name" : "Santa Cândida",
               "short_name" : "Santa Cândida",
               "types" : [ "political", "sublocality", "sublocality_level_1" ]
            },
            {
               "long_name" : "Curitiba",
               "short_name" : "Curitiba",
               "types" : [ "administrative_area_level_2", "political" ]
            },
            {
               "long_name" : "Paraná",
               "short_name" : "PR",
               "types" : [ "administrative_area_level_1", "political" ]
            },
            {
               "long_name" : "Brazil",
               "short_name" : "BR",
               "types" : [ "country", "political" ]
            },
            {
               "long_name" : "82640-150",
               "short_name" : "82640-150",
               "types" : [ "postal_code" ]
            }
         ],
         "formatted_address" : "R. Maj. Saúl de Carvalho Chaves, 450 - Santa Cândida, Curitiba - PR, 82640-150, Brazil",
         "geometry" : {
            "bounds" : {
               "northeast" : {
                  "lat" : -25.3728871,
                  "lng" : -49.2328218
               },
               "southwest" : {
                  "lat" : -25.3730337,
                  "lng" : -49.2330611
               }
            },
            "location" : {
               "lat" : -25.3729702,
               "lng" : -49.2329342
            },
            "location_type" : "ROOFTOP",
            "viewport" : {
               "northeast" : {
                  "lat" : -25.3716114197085,
                  "lng" : -49.2315924697085
               },
               "southwest" : {
                  "lat" : -25.37430938029151,
                  "lng" : -49.23429043029149
               }
            }
         },
         "place_id" : "ChIJRTnrtUTm3JQROgjrelC5h2o",
         "types" : [ "premise" ]
      },
      {
         "address_components" : [
            {
               "long_name" : "617",
               "short_name" : "617",
               "types" : [ "street_number" ]
            },
            {
               "long_name" : "Rua Professor Loureiro Fernandes",
               "short_name" : "R. Prof. Loureiro Fernandes",
               "types" : [ "route" ]
            },
            {
               "long_name" : "Santa Cândida",
               "short_name" : "Santa Cândida",
               "types" : [ "political", "sublocality", "sublocality_level_1" ]
            },
            {
               "long_name" : "Curitiba",
               "short_name" : "Curitiba",
               "types" : [ "administrative_area_level_2", "political" ]
            },
            {
               "long_name" : "Paraná",
               "short_name" : "PR",
               "types" : [ "administrative_area_level_1", "political" ]
            },
            {
               "long_name" : "Brazil",
               "short_name" : "BR",
               "types" : [ "country", "political" ]
            },
            {
               "long_name" : "82640-020",
               "short_name" : "82640-020",
               "types" : [ "postal_code" ]
            }
         ],
         "formatted_address" : "R. Prof. Loureiro Fernandes, 617 - Santa Cândida, Curitiba - PR, 82640-020, Brazil",
         "geometry" : {
            "location" : {
               "lat" : -25.3722684,
               "lng" : -49.2316861
            },
            "location_type" : "RANGE_INTERPOLATED",
            "viewport" : {
               "northeast" : {
                  "lat" : -25.3709194197085,
                  "lng" : -49.23033711970849
               },
               "southwest" : {
                  "lat" : -25.3736173802915,
                  "lng" : -49.23303508029149
               }
            }
         },
         "place_id" : "ElNSLiBQcm9mLiBMb3VyZWlybyBGZXJuYW5kZXMsIDYxNyAtIFNhbnRhIEPDom5kaWRhLCBDdXJpdGliYSAtIFBSLCA4MjY0MC0wMjAsIEJyYXppbCIbEhkKFAoSCWNFBetE5tyUEdC7P0Q8PMD8EOkE",
         "types" : [ "street_address" ]
      },
      {
         "address_components" : [
            {
               "long_name" : "727-577",
               "short_name" : "727-577",
               "types" : [ "street_number" ]
            },
            {
               "long_name" : "Rua Professor Loureiro Fernandes",
               "short_name" : "R. Prof. Loureiro Fernandes",
               "types" : [ "route" ]
            },
            {
               "long_name" : "Santa Cândida",
               "short_name" : "Santa Cândida",
               "types" : [ "political", "sublocality", "sublocality_level_1" ]
            },
            {
               "long_name" : "Curitiba",
               "short_name" : "Curitiba",
               "types" : [ "administrative_area_level_2", "political" ]
            },
            {
               "long_name" : "Paraná",
               "short_name" : "PR",
               "types" : [ "administrative_area_level_1", "political" ]
            },
            {
               "long_name" : "Brazil",
               "short_name" : "BR",
               "types" : [ "country", "political" ]
            },
            {
               "long_name" : "82640-020",
               "short_name" : "82640-020",
               "types" : [ "postal_code" ]
            }
         ],
         "formatted_address" : "R. Prof. Loureiro Fernandes, 727-577 - Santa Cândida, Curitiba - PR, 82640-020, Brazil",
         "geometry" : {
            "bounds" : {
               "northeast" : {
                  "lat" : -25.3719484,
                  "lng" : -49.2313065
               },
               "southwest" : {
                  "lat" : -25.3723879,
                  "lng" : -49.2327334
               }
            },
            "location" : {
               "lat" : -25.3721666,
               "lng" : -49.2320194
            },
            "location_type" : "GEOMETRIC_CENTER",
            "viewport" : {
               "northeast" : {
                  "lat" : -25.3708191697085,
                  "lng" : -49.23067096970851
               },
               "southwest" : {
                  "lat" : -25.3735171302915,
                  "lng" : -49.2333689302915
               }
            }
         },
         "place_id" : "ChIJY0UF60Tm3JQR0Ls_RDw8wPw",
         "types" : [ "route" ]
      },
      {
         "address_components" : [
            {
               "long_name" : "82640",
               "short_name" : "82640",
               "types" : [ "postal_code", "postal_code_prefix" ]
            },
            {
               "long_name" : "Santa Candida",
               "short_name" : "Santa Candida",
               "types" : [ "political", "sublocality", "sublocality_level_1" ]
            },
            {
               "long_name" : "Curitiba",
               "short_name" : "Curitiba",
               "types" : [ "administrative_area_level_2", "political" ]
            },
            {
               "long_name" : "State of Paraná",
               "short_name" : "PR",
               "types" : [ "administrative_area_level_1", "political" ]
            },
            {
               "long_name" : "Brazil",
               "short_name" : "BR",
               "types" : [ "country", "political" ]
            }
         ],
         "formatted_address" : "Santa Candida, Curitiba - State of Paraná, 82640, Brazil",
         "geometry" : {
            "bounds" : {
               "northeast" : {
                  "lat" : -25.3684211,
                  "lng" : -49.2268458
               },
               "southwest" : {
                  "lat" : -25.3886696,
                  "lng" : -49.2413898
               }
            },
            "location" : {
               "lat" : -25.3772995,
               "lng" : -49.2360011
            },
            "location_type" : "APPROXIMATE",
            "viewport" : {
               "northeast" : {
                  "lat" : -25.3684211,
                  "lng" : -49.2268458
               },
               "southwest" : {
                  "lat" : -25.3886696,
                  "lng" : -49.2413898
               }
            }
         },
         "place_id" : "ChIJPRqmWl3m3JQRa5OexerinZU",
         "types" : [ "postal_code", "postal_code_prefix" ]
      },
      {
         "address_components" : [
            {
               "long_name" : "Santa Candida",
               "short_name" : "Santa Candida",
               "types" : [ "political", "sublocality", "sublocality_level_1" ]
            },
            {
               "long_name" : "Curitiba",
               "short_name" : "Curitiba",
               "types" : [ "administrative_area_level_2", "political" ]
            },
            {
               "long_name" : "State of Paraná",
               "short_name" : "PR",
               "types" : [ "administrative_area_level_1", "political" ]
            },
            {
               "long_name" : "Brazil",
               "short_name" : "BR",
               "types" : [ "country", "political" ]
            }
         ],
         "formatted_address" : "Santa Candida, Curitiba - State of Paraná, Brazil",
         "geometry" : {
            "bounds" : {
               "northeast" : {
                  "lat" : -25.3491363,
                  "lng" : -49.2068498
               },
               "southwest" : {
                  "lat" : -25.3847118,
                  "lng" : -49.2522482
               }
            },
            "location" : {
               "lat" : -25.3690362,
               "lng" : -49.2364955
            },
            "location_type" : "APPROXIMATE",
            "viewport" : {
               "northeast" : {
                  "lat" : -25.3491363,
                  "lng" : -49.2068498
               },
               "southwest" : {
                  "lat" : -25.3847118,
                  "lng" : -49.2522482
               }
            }
         },
         "place_id" : "ChIJebPqSU_m3JQRr3t9VBfBrFA",
         "types" : [ "political", "sublocality", "sublocality_level_1" ]
      },
      {
         "address_components" : [
            {
               "long_name" : "Boa Vista",
               "short_name" : "Boa Vista",
               "types" : [ "administrative_area_level_4", "political" ]
            },
            {
               "long_name" : "Curitiba",
               "short_name" : "Curitiba",
               "types" : [ "administrative_area_level_2", "political" ]
            },
            {
               "long_name" : "State of Paraná",
               "short_name" : "PR",
               "types" : [ "administrative_area_level_1", "political" ]
            },
            {
               "long_name" : "Brazil",
               "short_name" : "BR",
               "types" : [ "country", "political" ]
            }
         ],
         "formatted_address" : "Boa Vista, Curitiba - State of Paraná, Brazil",
         "geometry" : {
            "bounds" : {
               "northeast" : {
                  "lat" : -25.346995,
                  "lng" : -49.1914303
               },
               "southwest" : {
                  "lat" : -25.4313697,
                  "lng" : -49.2815916
               }
            },
            "location" : {
               "lat" : -25.3886823,
               "lng" : -49.2334685
            },
            "location_type" : "APPROXIMATE",
            "viewport" : {
               "northeast" : {
                  "lat" : -25.346995,
                  "lng" : -49.1914303
               },
               "southwest" : {
                  "lat" : -25.4313697,
                  "lng" : -49.2815916
               }
            }
         },
         "place_id" : "ChIJ4yXhiYjm3JQRib7FMdA38u0",
         "types" : [ "administrative_area_level_4", "political" ]
      },
      {
         "address_components" : [
            {
               "long_name" : "Curitiba",
               "short_name" : "Curitiba",
               "types" : [ "locality", "political" ]
            },
            {
               "long_name" : "Curitiba",
               "short_name" : "Curitiba",
               "types" : [ "administrative_area_level_2", "political" ]
            },
            {
               "long_name" : "State of Paraná",
               "short_name" : "PR",
               "types" : [ "administrative_area_level_1", "political" ]
            },
            {
               "long_name" : "Brazil",
               "short_name" : "BR",
               "types" : [ "country", "political" ]
            }
         ],
         "formatted_address" : "Curitiba, State of Paraná, Brazil",
         "geometry" : {
            "bounds" : {
               "northeast" : {
                  "lat" : -25.346995,
                  "lng" : -49.1897635
               },
               "southwest" : {
                  "lat" : -25.6432382,
                  "lng" : -49.38983289999999
               }
            },
            "location" : {
               "lat" : -25.4289541,
               "lng" : -49.267137
            },
            "location_type" : "APPROXIMATE",
            "viewport" : {
               "northeast" : {
                  "lat" : -25.346995,
                  "lng" : -49.1897635
               },
               "southwest" : {
                  "lat" : -25.6432382,
                  "lng" : -49.38983289999999
               }
            }
         },
         "place_id" : "ChIJ3bPNUVPj3JQRCejLuqVrL20",
         "types" : [ "locality", "political" ]
      },
      {
         "address_components" : [
            {
               "long_name" : "Curitiba",
               "short_name" : "Curitiba",
               "types" : [ "administrative_area_level_2", "political" ]
            },
            {
               "long_name" : "State of Paraná",
               "short_name" : "PR",
               "types" : [ "administrative_area_level_1", "political" ]
            },
            {
               "long_name" : "Brazil",
               "short_name" : "BR",
               "types" : [ "country", "political" ]
            }
         ],
         "formatted_address" : "Curitiba - State of Paraná, Brazil",
         "geometry" : {
            "bounds" : {
               "northeast" : {
                  "lat" : -25.346736,
                  "lng" : -49.18522489999999
               },
               "southwest" : {
                  "lat" : -25.6453862,
                  "lng" : -49.38933859999999
               }
            },
            "location" : {
               "lat" : -25.4808762,
               "lng" : -49.3044253
            },
            "location_type" : "APPROXIMATE",
            "viewport" : {
               "northeast" : {
                  "lat" : -25.346736,
                  "lng" : -49.18522489999999
               },
               "southwest" : {
                  "lat" : -25.6453862,
                  "lng" : -49.38933859999999
               }
            }
         },
         "place_id" : "ChIJ8Q8J_PXj3JQRR7crCbCDejw",
         "types" : [ "administrative_area_level_2", "political" ]
      },
      {
         "address_components" : [
            {
               "long_name" : "State of Paraná",
               "short_name" : "PR",
               "types" : [ "administrative_area_level_1", "political" ]
            },
            {
               "long_name" : "Brazil",
               "short_name" : "BR",
               "types" : [ "country", "political" ]
            }
         ],
         "formatted_address" : "State of Paraná, Brazil",
         "geometry" : {
            "bounds" : {
               "northeast" : {
                  "lat" : -22.5166644,
                  "lng" : -48.0235303
               },
               "southwest" : {
                  "lat" : -26.7172983,
                  "lng" : -54.6192979
               }
            },
            "location" : {
               "lat" : -25.2520888,
               "lng" : -52.0215415
            },
            "location_type" : "APPROXIMATE",
            "viewport" : {
               "northeast" : {
                  "lat" : -22.5166644,
                  "lng" : -48.0235303
               },
               "southwest" : {
                  "lat" : -26.7172983,
                  "lng" : -54.6192979
               }
            }
         },
         "place_id" : "ChIJnWK4MJQL25QRYfDOY1D9k-g",
         "types" : [ "administrative_area_level_1", "political" ]
      },
      {
         "address_components" : [
            {
               "long_name" : "Brazil",
               "short_name" : "BR",
               "types" : [ "country", "political" ]
            }
         ],
         "formatted_address" : "Brazil",
         "geometry" : {
            "bounds" : {
               "northeast" : {
                  "lat" : 5.2717863,
                  "lng" : -28.650543
               },
               "southwest" : {
                  "lat" : -34.0891,
                  "lng" : -73.9828169
               }
            },
            "location" : {
               "lat" : -14.235004,
               "lng" : -51.92528
            },
            "location_type" : "APPROXIMATE",
            "viewport" : {
               "northeast" : {
                  "lat" : 5.2717863,
                  "lng" : -28.650543
               },
               "southwest" : {
                  "lat" : -34.0891,
                  "lng" : -73.9828169
               }
            }
         },
         "place_id" : "ChIJzyjM68dZnAARYz4p8gYVWik",
         "types" : [ "country", "political" ]
      }
   ],
   "status" : "OK"
}
