{
   "plus_code" : {
      "compound_code" : "JP9R+FH Curitiba, State of Paraná, Brazil",
      "global_code" : "586GJP9R+FH"
   },
   "results" : [
      {
         "address_components" : [
            {
               "long_name" : "264",
               "short_name" : "264",
               "types" : [ "street_number" ]
            },
            {
               "long_name" : "Rua Flórida",
               "short_name" : "Rua Flórida",
               "types" : [ "route" ]
            },
            {
               "long_name" : "Barreirinha",
               "short_name" : "Barreirinha",
               "types" : [ "political", "sublocality", "sublocality_level_1" ]
            },
            {
               "long_name" : "Curitiba",
               "short_name" : "Curitiba",
               "types" : [ "administrative_area_level_2", "political" ]
            },
            {
               "long_name" : "Paraná",
               "short_name" : "PR",
               "types" : [ "administrative_area_level_1", "political" ]
            },
            {
               "long_name" : "Brazil",
               "short_name" : "BR",
               "types" : [ "country", "political" ]
            },
            {
               "long_name" : "82560-130",
               "short_name" : "82560-130",
               "types" : [ "postal_code" ]
            }
         ],
         "formatted_address" : "Rua Flórida, 264 - Barreirinha, Curitiba - PR, 82560-130, Brazil",
         "geometry" : {
            "bounds" : {
               "northeast" : {
                  "lat" : -25.3811115,
                  "lng" : -49.2583501
               },
               "southwest" : {
                  "lat" : -25.3812201,
                  "lng" : -49.2585151
               }
            },
            "location" : {
               "lat" : -25.3811704,
               "lng" : -49.2584241
            },
            "location_type" : "ROOFTOP",
            "viewport" : {
               "northeast" : {
                  "lat" : -25.3798168197085,
                  "lng" : -49.2570836197085
               },
               "southwest" : {
                  "lat" : -25.38251478029151,
                  "lng" : -49.2597815802915
               }
            }
         },
         "place_id" : "ChIJwwURtu7m3JQRBMZ8NFYtaGg",
         "types" : [ "premise" ]
      },
      {
         "address_components" : [
            {
               "long_name" : "278",
               "short_name" : "278",
               "types" : [ "street_number" ]
            },
            {
               "long_name" : "Rua Flórida",
               "short_name" : "Rua Flórida",
               "types" : [ "route" ]
            },
            {
               "long_name" : "Barreirinha",
               "short_name" : "Barreirinha",
               "types" : [ "political", "sublocality", "sublocality_level_1" ]
            },
            {
               "long_name" : "Curitiba",
               "short_name" : "Curitiba",
               "types" : [ "administrative_area_level_2", "political" ]
            },
            {
               "long_name" : "Paraná",
               "short_name" : "PR",
               "types" : [ "administrative_area_level_1", "political" ]
            },
            {
               "long_name" : "Brazil",
               "short_name" : "BR",
               "types" : [ "country", "political" ]
            },
            {
               "long_name" : "82560-130",
               "short_name" : "82560-130",
               "types" : [ "postal_code" ]
            }
         ],
         "formatted_address" : "Rua Flórida, 278 - Barreirinha, Curitiba - PR, 82560-130, Brazil",
         "geometry" : {
            "location" : {
               "lat" : -25.381042,
               "lng" : -49.25848
            },
            "location_type" : "ROOFTOP",
            "viewport" : {
               "northeast" : {
                  "lat" : -25.37969301970849,
                  "lng" : -49.2571310197085
               },
               "southwest" : {
                  "lat" : -25.3823909802915,
                  "lng" : -49.25982898029149
               }
            }
         },
         "place_id" : "ChIJF2yKye7m3JQRF3BJK2GBojM",
         "plus_code" : {
            "compound_code" : "JP9R+HJ Curitiba, State of Paraná, Brazil",
            "global_code" : "586GJP9R+HJ"
         },
         "types" : [ "street_address" ]
      },
      {
         "address_components" : [
            {
               "long_name" : "Rua Flórida",
               "short_name" : "Rua Flórida",
               "types" : [ "route" ]
            },
            {
               "long_name" : "Curitiba",
               "short_name" : "Curitiba",
               "types" : [ "administrative_area_level_2", "political" ]
            },
            {
               "long_name" : "Paraná",
               "short_name" : "PR",
               "types" : [ "administrative_area_level_1", "political" ]
            },
            {
               "long_name" : "Brazil",
               "short_name" : "BR",
               "types" : [ "country", "political" ]
            },
            {
               "long_name" : "82560-130",
               "short_name" : "82560-130",
               "types" : [ "postal_code" ]
            }
         ],
         "formatted_address" : "344 - Rua Flórida, Curitiba - PR, 82560-130, Brazil",
         "geometry" : {
            "location" : {
               "lat" : -25.3809912,
               "lng" : -49.25841399999999
            },
            "location_type" : "GEOMETRIC_CENTER",
            "viewport" : {
               "northeast" : {
                  "lat" : -25.3796422197085,
                  "lng" : -49.2570650197085
               },
               "southwest" : {
                  "lat" : -25.3823401802915,
                  "lng" : -49.2597629802915
               }
            }
         },
         "place_id" : "ChIJdWyhy-7m3JQRYjKMNUc4W24",
         "plus_code" : {
            "compound_code" : "JP9R+JJ Curitiba, State of Paraná, Brazil",
            "global_code" : "586GJP9R+JJ"
         },
         "types" : [ "establishment", "point_of_interest" ]
      },
      {
         "address_components" : [
            {
               "long_name" : "256",
               "short_name" : "256",
               "types" : [ "street_number" ]
            },
            {
               "long_name" : "Rua Flórida",
               "short_name" : "Rua Flórida",
               "types" : [ "route" ]
            },
            {
               "long_name" : "Barreirinha",
               "short_name" : "Barreirinha",
               "types" : [ "political", "sublocality", "sublocality_level_1" ]
            },
            {
               "long_name" : "Curitiba",
               "short_name" : "Curitiba",
               "types" : [ "administrative_area_level_2", "political" ]
            },
            {
               "long_name" : "Paraná",
               "short_name" : "PR",
               "types" : [ "administrative_area_level_1", "political" ]
            },
            {
               "long_name" : "Brazil",
               "short_name" : "BR",
               "types" : [ "country", "political" ]
            },
            {
               "long_name" : "82560-130",
               "short_name" : "82560-130",
               "types" : [ "postal_code" ]
            }
         ],
         "formatted_address" : "Rua Flórida, 256 - Barreirinha, Curitiba - PR, 82560-130, Brazil",
         "geometry" : {
            "location" : {
               "lat" : -25.3812469,
               "lng" : -49.2586698
            },
            "location_type" : "RANGE_INTERPOLATED",
            "viewport" : {
               "northeast" : {
                  "lat" : -25.3798979197085,
                  "lng" : -49.2573208197085
               },
               "southwest" : {
                  "lat" : -25.3825958802915,
                  "lng" : -49.2600187802915
               }
            }
         },
         "place_id" : "EkFSdWEgRmzDs3JpZGEsIDI1NiAtIEJhcnJlaXJpbmhhLCBDdXJpdGliYSAtIFBSLCA4MjU2MC0xMzAsIEJyYXppbCIbEhkKFAoSCfUPd8zu5tyUEYoSKWbr6Ru5EIAC",
         "types" : [ "street_address" ]
      },
      {
         "address_components" : [
            {
               "long_name" : "248-504",
               "short_name" : "248-504",
               "types" : [ "street_number" ]
            },
            {
               "long_name" : "Rua Flórida",
               "short_name" : "Rua Flórida",
               "types" : [ "route" ]
            },
            {
               "long_name" : "Barreirinha",
               "short_name" : "Barreirinha",
               "types" : [ "political", "sublocality", "sublocality_level_1" ]
            },
            {
               "long_name" : "Curitiba",
               "short_name" : "Curitiba",
               "types" : [ "administrative_area_level_2", "political" ]
            },
            {
               "long_name" : "Paraná",
               "short_name" : "PR",
               "types" : [ "administrative_area_level_1", "political" ]
            },
            {
               "long_name" : "Brazil",
               "short_name" : "BR",
               "types" : [ "country", "political" ]
            },
            {
               "long_name" : "82560-130",
               "short_name" : "82560-130",
               "types" : [ "postal_code" ]
            }
         ],
         "formatted_address" : "Rua Flórida, 248-504 - Barreirinha, Curitiba - PR, 82560-130, Brazil",
         "geometry" : {
            "bounds" : {
               "northeast" : {
                  "lat" : -25.3803387,
                  "lng" : -49.2585219
               },
               "southwest" : {
                  "lat" : -25.3813525,
                  "lng" : -49.2586862
               }
            },
            "location" : {
               "lat" : -25.3808451,
               "lng" : -49.2586076
            },
            "location_type" : "GEOMETRIC_CENTER",
            "viewport" : {
               "northeast" : {
                  "lat" : -25.3794966197085,
                  "lng" : -49.25725506970851
               },
               "southwest" : {
                  "lat" : -25.3821945802915,
                  "lng" : -49.2599530302915
               }
            }
         },
         "place_id" : "ChIJ9Q93zO7m3JQRihIpZuvpG7k",
         "types" : [ "route" ]
      },
      {
         "address_components" : [
            {
               "long_name" : "82560-130",
               "short_name" : "82560-130",
               "types" : [ "postal_code" ]
            },
            {
               "long_name" : "Barreirinha",
               "short_name" : "Barreirinha",
               "types" : [ "political", "sublocality", "sublocality_level_1" ]
            },
            {
               "long_name" : "Curitiba",
               "short_name" : "Curitiba",
               "types" : [ "administrative_area_level_2", "political" ]
            },
            {
               "long_name" : "State of Paraná",
               "short_name" : "PR",
               "types" : [ "administrative_area_level_1", "political" ]
            },
            {
               "long_name" : "Brazil",
               "short_name" : "BR",
               "types" : [ "country", "political" ]
            }
         ],
         "formatted_address" : "Barreirinha, Curitiba - State of Paraná, 82560-130, Brazil",
         "geometry" : {
            "bounds" : {
               "northeast" : {
                  "lat" : -25.3804117,
                  "lng" : -49.2582118
               },
               "southwest" : {
                  "lat" : -25.3832112,
                  "lng" : -49.2592122
               }
            },
            "location" : {
               "lat" : -25.3816444,
               "lng" : -49.2586418
            },
            "location_type" : "APPROXIMATE",
            "viewport" : {
               "northeast" : {
                  "lat" : -25.3804117,
                  "lng" : -49.2573630197085
               },
               "southwest" : {
                  "lat" : -25.3832112,
                  "lng" : -49.2600609802915
               }
            }
         },
         "place_id" : "ChIJVaSyUunm3JQRuh2JXmUB1v0",
         "types" : [ "postal_code" ]
      },
      {
         "address_components" : [
            {
               "long_name" : "82210",
               "short_name" : "82210",
               "types" : [ "postal_code", "postal_code_prefix" ]
            },
            {
               "long_name" : "Boa Vista",
               "short_name" : "Boa Vista",
               "types" : [ "administrative_area_level_4", "political" ]
            },
            {
               "long_name" : "Curitiba",
               "short_name" : "Curitiba",
               "types" : [ "administrative_area_level_2", "political" ]
            },
            {
               "long_name" : "State of Paraná",
               "short_name" : "PR",
               "types" : [ "administrative_area_level_1", "political" ]
            },
            {
               "long_name" : "Brazil",
               "short_name" : "BR",
               "types" : [ "country", "political" ]
            }
         ],
         "formatted_address" : "Boa Vista, Curitiba - State of Paraná, 82210, Brazil",
         "geometry" : {
            "bounds" : {
               "northeast" : {
                  "lat" : -25.3714926,
                  "lng" : -49.25648940000001
               },
               "southwest" : {
                  "lat" : -25.389409,
                  "lng" : -49.2730898
               }
            },
            "location" : {
               "lat" : -25.3825509,
               "lng" : -49.2664018
            },
            "location_type" : "APPROXIMATE",
            "viewport" : {
               "northeast" : {
                  "lat" : -25.3714926,
                  "lng" : -49.25648940000001
               },
               "southwest" : {
                  "lat" : -25.389409,
                  "lng" : -49.2730898
               }
            }
         },
         "place_id" : "ChIJVR_7u8Lm3JQRi3LyEA28dNI",
         "types" : [ "postal_code", "postal_code_prefix" ]
      },
      {
         "address_components" : [
            {
               "long_name" : "Barreirinha",
               "short_name" : "Barreirinha",
               "types" : [ "political", "sublocality", "sublocality_level_1" ]
            },
            {
               "long_name" : "Curitiba",
               "short_name" : "Curitiba",
               "types" : [ "administrative_area_level_2", "political" ]
            },
            {
               "long_name" : "State of Paraná",
               "short_name" : "PR",
               "types" : [ "administrative_area_level_1", "political" ]
            },
            {
               "long_name" : "Brazil",
               "short_name" : "BR",
               "types" : [ "country", "political" ]
            }
         ],
         "formatted_address" : "Barreirinha, Curitiba - State of Paraná, Brazil",
         "geometry" : {
            "bounds" : {
               "northeast" : {
                  "lat" : -25.3598298,
                  "lng" : -49.24661320000001
               },
               "southwest" : {
                  "lat" : -25.3856732,
                  "lng" : -49.2688626
               }
            },
            "location" : {
               "lat" : -25.3703826,
               "lng" : -49.2609562
            },
            "location_type" : "APPROXIMATE",
            "viewport" : {
               "northeast" : {
                  "lat" : -25.3598298,
                  "lng" : -49.24661320000001
               },
               "southwest" : {
                  "lat" : -25.3856732,
                  "lng" : -49.2688626
               }
            }
         },
         "place_id" : "ChIJBTOlaOTm3JQRL1ukNUsUMOs",
         "types" : [ "political", "sublocality", "sublocality_level_1" ]
      },
      {
         "address_components" : [
            {
               "long_name" : "Boa Vista",
               "short_name" : "Boa Vista",
               "types" : [ "administrative_area_level_4", "political" ]
            },
            {
               "long_name" : "Curitiba",
               "short_name" : "Curitiba",
               "types" : [ "administrative_area_level_2", "political" ]
            },
            {
               "long_name" : "State of Paraná",
               "short_name" : "PR",
               "types" : [ "administrative_area_level_1", "political" ]
            },
            {
               "long_name" : "Brazil",
               "short_name" : "BR",
               "types" : [ "country", "political" ]
            }
         ],
         "formatted_address" : "Boa Vista, Curitiba - State of Paraná, Brazil",
         "geometry" : {
            "bounds" : {
               "northeast" : {
                  "lat" : -25.346995,
                  "lng" : -49.1914303
               },
               "southwest" : {
                  "lat" : -25.4313697,
                  "lng" : -49.2815916
               }
            },
            "location" : {
               "lat" : -25.3886823,
               "lng" : -49.2334685
            },
            "location_type" : "APPROXIMATE",
            "viewport" : {
               "northeast" : {
                  "lat" : -25.346995,
                  "lng" : -49.1914303
               },
               "southwest" : {
                  "lat" : -25.4313697,
                  "lng" : -49.2815916
               }
            }
         },
         "place_id" : "ChIJ4yXhiYjm3JQRib7FMdA38u0",
         "types" : [ "administrative_area_level_4", "political" ]
      },
      {
         "address_components" : [
            {
               "long_name" : "Curitiba",
               "short_name" : "Curitiba",
               "types" : [ "locality", "political" ]
            },
            {
               "long_name" : "Curitiba",
               "short_name" : "Curitiba",
               "types" : [ "administrative_area_level_2", "political" ]
            },
            {
               "long_name" : "State of Paraná",
               "short_name" : "PR",
               "types" : [ "administrative_area_level_1", "political" ]
            },
            {
               "long_name" : "Brazil",
               "short_name" : "BR",
               "types" : [ "country", "political" ]
            }
         ],
         "formatted_address" : "Curitiba, State of Paraná, Brazil",
         "geometry" : {
            "bounds" : {
               "northeast" : {
                  "lat" : -25.346995,
                  "lng" : -49.1897635
               },
               "southwest" : {
                  "lat" : -25.6432382,
                  "lng" : -49.38983289999999
               }
            },
            "location" : {
               "lat" : -25.4289541,
               "lng" : -49.267137
            },
            "location_type" : "APPROXIMATE",
            "viewport" : {
               "northeast" : {
                  "lat" : -25.346995,
                  "lng" : -49.1897635
               },
               "southwest" : {
                  "lat" : -25.6432382,
                  "lng" : -49.38983289999999
               }
            }
         },
         "place_id" : "ChIJ3bPNUVPj3JQRCejLuqVrL20",
         "types" : [ "locality", "political" ]
      },
      {
         "address_components" : [
            {
               "long_name" : "Curitiba",
               "short_name" : "Curitiba",
               "types" : [ "administrative_area_level_2", "political" ]
            },
            {
               "long_name" : "State of Paraná",
               "short_name" : "PR",
               "types" : [ "administrative_area_level_1", "political" ]
            },
            {
               "long_name" : "Brazil",
               "short_name" : "BR",
               "types" : [ "country", "political" ]
            }
         ],
         "formatted_address" : "Curitiba - State of Paraná, Brazil",
         "geometry" : {
            "bounds" : {
               "northeast" : {
                  "lat" : -25.346736,
                  "lng" : -49.18522489999999
               },
               "southwest" : {
                  "lat" : -25.6453862,
                  "lng" : -49.38933859999999
               }
            },
            "location" : {
               "lat" : -25.4808762,
               "lng" : -49.3044253
            },
            "location_type" : "APPROXIMATE",
            "viewport" : {
               "northeast" : {
                  "lat" : -25.346736,
                  "lng" : -49.18522489999999
               },
               "southwest" : {
                  "lat" : -25.6453862,
                  "lng" : -49.38933859999999
               }
            }
         },
         "place_id" : "ChIJ8Q8J_PXj3JQRR7crCbCDejw",
         "types" : [ "administrative_area_level_2", "political" ]
      },
      {
         "address_components" : [
            {
               "long_name" : "State of Paraná",
               "short_name" : "PR",
               "types" : [ "administrative_area_level_1", "political" ]
            },
            {
               "long_name" : "Brazil",
               "short_name" : "BR",
               "types" : [ "country", "political" ]
            }
         ],
         "formatted_address" : "State of Paraná, Brazil",
         "geometry" : {
            "bounds" : {
               "northeast" : {
                  "lat" : -22.5166644,
                  "lng" : -48.0235303
               },
               "southwest" : {
                  "lat" : -26.7172983,
                  "lng" : -54.6192979
               }
            },
            "location" : {
               "lat" : -25.2520888,
               "lng" : -52.0215415
            },
            "location_type" : "APPROXIMATE",
            "viewport" : {
               "northeast" : {
                  "lat" : -22.5166644,
                  "lng" : -48.0235303
               },
               "southwest" : {
                  "lat" : -26.7172983,
                  "lng" : -54.6192979
               }
            }
         },
         "place_id" : "ChIJnWK4MJQL25QRYfDOY1D9k-g",
         "types" : [ "administrative_area_level_1", "political" ]
      },
      {
         "address_components" : [
            {
               "long_name" : "Brazil",
               "short_name" : "BR",
               "types" : [ "country", "political" ]
            }
         ],
         "formatted_address" : "Brazil",
         "geometry" : {
            "bounds" : {
               "northeast" : {
                  "lat" : 5.2717863,
                  "lng" : -28.650543
               },
               "southwest" : {
                  "lat" : -34.0891,
                  "lng" : -73.9828169
               }
            },
            "location" : {
               "lat" : -14.235004,
               "lng" : -51.92528
            },
            "location_type" : "APPROXIMATE",
            "viewport" : {
               "northeast" : {
                  "lat" : 5.2717863,
                  "lng" : -28.650543
               },
               "southwest" : {
                  "lat" : -34.0891,
                  "lng" : -73.9828169
               }
            }
         },
         "place_id" : "ChIJzyjM68dZnAARYz4p8gYVWik",
         "types" : [ "country", "political" ]
      }
   ],
   "status" : "OK"
}
