{
   "plus_code" : {
      "compound_code" : "HPFH+VJ Curitiba, State of Paraná, Brazil",
      "global_code" : "586GHPFH+VJ"
   },
   "results" : [
      {
         "address_components" : [
            {
               "long_name" : "130",
               "short_name" : "130",
               "types" : [ "street_number" ]
            },
            {
               "long_name" : "Rua Paula Gomes",
               "short_name" : "R. Paula Gomes",
               "types" : [ "route" ]
            },
            {
               "long_name" : "São Francisco",
               "short_name" : "São Francisco",
               "types" : [ "political", "sublocality", "sublocality_level_1" ]
            },
            {
               "long_name" : "Curitiba",
               "short_name" : "Curitiba",
               "types" : [ "administrative_area_level_2", "political" ]
            },
            {
               "long_name" : "Paraná",
               "short_name" : "PR",
               "types" : [ "administrative_area_level_1", "political" ]
            },
            {
               "long_name" : "Brazil",
               "short_name" : "BR",
               "types" : [ "country", "political" ]
            },
            {
               "long_name" : "80510-070",
               "short_name" : "80510-070",
               "types" : [ "postal_code" ]
            }
         ],
         "formatted_address" : "R. Paula Gomes, 130 - São Francisco, Curitiba - PR, 80510-070, Brazil",
         "geometry" : {
            "location" : {
               "lat" : -25.4252742,
               "lng" : -49.2709536
            },
            "location_type" : "ROOFTOP",
            "viewport" : {
               "northeast" : {
                  "lat" : -25.4239252197085,
                  "lng" : -49.2696046197085
               },
               "southwest" : {
                  "lat" : -25.4266231802915,
                  "lng" : -49.27230258029149
               }
            }
         },
         "place_id" : "ChIJ_ScOexHk3JQR27yjxfjlujE",
         "plus_code" : {
            "compound_code" : "HPFH+VJ São Francisco - Matriz, Curitiba - State of Paraná, Brazil",
            "global_code" : "586GHPFH+VJ"
         },
         "types" : [ "accounting", "establishment", "finance", "point_of_interest" ]
      },
      {
         "address_components" : [
            {
               "long_name" : "126",
               "short_name" : "126",
               "types" : [ "street_number" ]
            },
            {
               "long_name" : "Rua Paula Gomes",
               "short_name" : "R. Paula Gomes",
               "types" : [ "route" ]
            },
            {
               "long_name" : "São Francisco",
               "short_name" : "São Francisco",
               "types" : [ "political", "sublocality", "sublocality_level_1" ]
            },
            {
               "long_name" : "Curitiba",
               "short_name" : "Curitiba",
               "types" : [ "administrative_area_level_2", "political" ]
            },
            {
               "long_name" : "Paraná",
               "short_name" : "PR",
               "types" : [ "administrative_area_level_1", "political" ]
            },
            {
               "long_name" : "Brazil",
               "short_name" : "BR",
               "types" : [ "country", "political" ]
            },
            {
               "long_name" : "80510-070",
               "short_name" : "80510-070",
               "types" : [ "postal_code" ]
            }
         ],
         "formatted_address" : "R. Paula Gomes, 126 - São Francisco, Curitiba - PR, 80510-070, Brazil",
         "geometry" : {
            "location" : {
               "lat" : -25.425255,
               "lng" : -49.2709055
            },
            "location_type" : "ROOFTOP",
            "viewport" : {
               "northeast" : {
                  "lat" : -25.4239060197085,
                  "lng" : -49.2695565197085
               },
               "southwest" : {
                  "lat" : -25.4266039802915,
                  "lng" : -49.2722544802915
               }
            }
         },
         "place_id" : "ChIJRwo_exHk3JQRJ1l1RILXomg",
         "plus_code" : {
            "compound_code" : "HPFH+VJ Curitiba, State of Paraná, Brazil",
            "global_code" : "586GHPFH+VJ"
         },
         "types" : [ "street_address" ]
      },
      {
         "address_components" : [
            {
               "long_name" : "98",
               "short_name" : "98",
               "types" : [ "street_number" ]
            },
            {
               "long_name" : "Rua Paula Gomes",
               "short_name" : "R. Paula Gomes",
               "types" : [ "route" ]
            },
            {
               "long_name" : "Centro",
               "short_name" : "Centro",
               "types" : [ "political", "sublocality", "sublocality_level_1" ]
            },
            {
               "long_name" : "Curitiba",
               "short_name" : "Curitiba",
               "types" : [ "administrative_area_level_2", "political" ]
            },
            {
               "long_name" : "Paraná",
               "short_name" : "PR",
               "types" : [ "administrative_area_level_1", "political" ]
            },
            {
               "long_name" : "Brazil",
               "short_name" : "BR",
               "types" : [ "country", "political" ]
            },
            {
               "long_name" : "80510-070",
               "short_name" : "80510-070",
               "types" : [ "postal_code" ]
            }
         ],
         "formatted_address" : "R. Paula Gomes, 98 - Centro, Curitiba - PR, 80510-070, Brazil",
         "geometry" : {
            "location" : {
               "lat" : -25.4252553,
               "lng" : -49.2706611
            },
            "location_type" : "ROOFTOP",
            "viewport" : {
               "northeast" : {
                  "lat" : -25.4239063197085,
                  "lng" : -49.2693121197085
               },
               "southwest" : {
                  "lat" : -25.4266042802915,
                  "lng" : -49.27201008029149
               }
            }
         },
         "place_id" : "ChIJeZRIYhHk3JQRYTdchM5D3UI",
         "plus_code" : {
            "compound_code" : "HPFH+VP Curitiba, State of Paraná, Brazil",
            "global_code" : "586GHPFH+VP"
         },
         "types" : [ "establishment", "premise" ]
      },
      {
         "address_components" : [
            {
               "long_name" : "135",
               "short_name" : "135",
               "types" : [ "street_number" ]
            },
            {
               "long_name" : "Rua Paula Gomes",
               "short_name" : "R. Paula Gomes",
               "types" : [ "route" ]
            },
            {
               "long_name" : "São Francisco",
               "short_name" : "São Francisco",
               "types" : [ "political", "sublocality", "sublocality_level_1" ]
            },
            {
               "long_name" : "Curitiba",
               "short_name" : "Curitiba",
               "types" : [ "administrative_area_level_2", "political" ]
            },
            {
               "long_name" : "Paraná",
               "short_name" : "PR",
               "types" : [ "administrative_area_level_1", "political" ]
            },
            {
               "long_name" : "Brazil",
               "short_name" : "BR",
               "types" : [ "country", "political" ]
            },
            {
               "long_name" : "80510-070",
               "short_name" : "80510-070",
               "types" : [ "postal_code" ]
            }
         ],
         "formatted_address" : "R. Paula Gomes, 135 - São Francisco, Curitiba - PR, 80510-070, Brazil",
         "geometry" : {
            "location" : {
               "lat" : -25.4252954,
               "lng" : -49.2709341
            },
            "location_type" : "RANGE_INTERPOLATED",
            "viewport" : {
               "northeast" : {
                  "lat" : -25.4239464197085,
                  "lng" : -49.26958511970849
               },
               "southwest" : {
                  "lat" : -25.4266443802915,
                  "lng" : -49.27228308029149
               }
            }
         },
         "place_id" : "EkZSLiBQYXVsYSBHb21lcywgMTM1IC0gU8OjbyBGcmFuY2lzY28sIEN1cml0aWJhIC0gUFIsIDgwNTEwLTA3MCwgQnJhemlsIhsSGQoUChIJwcJ6exHk3JQRn4_voZXW4pkQhwE",
         "types" : [ "street_address" ]
      },
      {
         "address_components" : [
            {
               "long_name" : "76-180",
               "short_name" : "76-180",
               "types" : [ "street_number" ]
            },
            {
               "long_name" : "Rua Paula Gomes",
               "short_name" : "R. Paula Gomes",
               "types" : [ "route" ]
            },
            {
               "long_name" : "São Francisco",
               "short_name" : "São Francisco",
               "types" : [ "political", "sublocality", "sublocality_level_1" ]
            },
            {
               "long_name" : "Curitiba",
               "short_name" : "Curitiba",
               "types" : [ "administrative_area_level_2", "political" ]
            },
            {
               "long_name" : "Paraná",
               "short_name" : "PR",
               "types" : [ "administrative_area_level_1", "political" ]
            },
            {
               "long_name" : "Brazil",
               "short_name" : "BR",
               "types" : [ "country", "political" ]
            },
            {
               "long_name" : "80510-070",
               "short_name" : "80510-070",
               "types" : [ "postal_code" ]
            }
         ],
         "formatted_address" : "R. Paula Gomes, 76-180 - São Francisco, Curitiba - PR, 80510-070, Brazil",
         "geometry" : {
            "bounds" : {
               "northeast" : {
                  "lat" : -25.4251756,
                  "lng" : -49.2704065
               },
               "southwest" : {
                  "lat" : -25.4253927,
                  "lng" : -49.271473
               }
            },
            "location" : {
               "lat" : -25.4252936,
               "lng" : -49.2709421
            },
            "location_type" : "GEOMETRIC_CENTER",
            "viewport" : {
               "northeast" : {
                  "lat" : -25.4239351697085,
                  "lng" : -49.26959076970849
               },
               "southwest" : {
                  "lat" : -25.42663313029151,
                  "lng" : -49.27228873029149
               }
            }
         },
         "place_id" : "ChIJwcJ6exHk3JQRno_voZXW4pk",
         "types" : [ "route" ]
      },
      {
         "address_components" : [
            {
               "long_name" : "80510-070",
               "short_name" : "80510-070",
               "types" : [ "postal_code" ]
            },
            {
               "long_name" : "São Francisco",
               "short_name" : "São Francisco",
               "types" : [ "political", "sublocality", "sublocality_level_1" ]
            },
            {
               "long_name" : "Curitiba",
               "short_name" : "Curitiba",
               "types" : [ "administrative_area_level_2", "political" ]
            },
            {
               "long_name" : "State of Paraná",
               "short_name" : "PR",
               "types" : [ "administrative_area_level_1", "political" ]
            },
            {
               "long_name" : "Brazil",
               "short_name" : "BR",
               "types" : [ "country", "political" ]
            }
         ],
         "formatted_address" : "São Francisco, Curitiba - State of Paraná, 80510-070, Brazil",
         "geometry" : {
            "bounds" : {
               "northeast" : {
                  "lat" : -25.4232627,
                  "lng" : -49.2695427
               },
               "southwest" : {
                  "lat" : -25.4257762,
                  "lng" : -49.2795453
               }
            },
            "location" : {
               "lat" : -25.4245427,
               "lng" : -49.2744797
            },
            "location_type" : "APPROXIMATE",
            "viewport" : {
               "northeast" : {
                  "lat" : -25.4231704697085,
                  "lng" : -49.2695427
               },
               "southwest" : {
                  "lat" : -25.4258684302915,
                  "lng" : -49.2795453
               }
            }
         },
         "place_id" : "ChIJRy8FlxHk3JQRljWHnzUeFYM",
         "types" : [ "postal_code" ]
      },
      {
         "address_components" : [
            {
               "long_name" : "Matriz",
               "short_name" : "Matriz",
               "types" : [ "administrative_area_level_4", "political" ]
            },
            {
               "long_name" : "Curitiba",
               "short_name" : "Curitiba",
               "types" : [ "administrative_area_level_2", "political" ]
            },
            {
               "long_name" : "State of Paraná",
               "short_name" : "PR",
               "types" : [ "administrative_area_level_1", "political" ]
            },
            {
               "long_name" : "Brazil",
               "short_name" : "BR",
               "types" : [ "country", "political" ]
            },
            {
               "long_name" : "82590-300",
               "short_name" : "82590-300",
               "types" : [ "postal_code" ]
            }
         ],
         "formatted_address" : "Matriz, Curitiba - State of Paraná, 80020, Brazil",
         "geometry" : {
            "bounds" : {
               "northeast" : {
                  "lat" : -25.4179129,
                  "lng" : -49.2650325
               },
               "southwest" : {
                  "lat" : -25.4348716,
                  "lng" : -49.2765186
               }
            },
            "location" : {
               "lat" : -25.4282779,
               "lng" : -49.2714702
            },
            "location_type" : "APPROXIMATE",
            "viewport" : {
               "northeast" : {
                  "lat" : -25.4179129,
                  "lng" : -49.2650325
               },
               "southwest" : {
                  "lat" : -25.4348716,
                  "lng" : -49.2765186
               }
            }
         },
         "place_id" : "ChIJ43iZxRPk3JQRgNIqn7bxZfY",
         "types" : [ "postal_code", "postal_code_prefix" ]
      },
      {
         "address_components" : [
            {
               "long_name" : "São Francisco",
               "short_name" : "São Francisco",
               "types" : [ "political", "sublocality", "sublocality_level_1" ]
            },
            {
               "long_name" : "Curitiba",
               "short_name" : "Curitiba",
               "types" : [ "administrative_area_level_2", "political" ]
            },
            {
               "long_name" : "State of Paraná",
               "short_name" : "PR",
               "types" : [ "administrative_area_level_1", "political" ]
            },
            {
               "long_name" : "Brazil",
               "short_name" : "BR",
               "types" : [ "country", "political" ]
            },
            {
               "long_name" : "82590-300",
               "short_name" : "82590-300",
               "types" : [ "postal_code" ]
            }
         ],
         "formatted_address" : "São Francisco, Curitiba - State of Paraná, 82590-300, Brazil",
         "geometry" : {
            "bounds" : {
               "northeast" : {
                  "lat" : -25.4162735,
                  "lng" : -49.2701405
               },
               "southwest" : {
                  "lat" : -25.4300763,
                  "lng" : -49.2824884
               }
            },
            "location" : {
               "lat" : -25.4234212,
               "lng" : -49.2757774
            },
            "location_type" : "APPROXIMATE",
            "viewport" : {
               "northeast" : {
                  "lat" : -25.4162735,
                  "lng" : -49.2701405
               },
               "southwest" : {
                  "lat" : -25.4300763,
                  "lng" : -49.2824884
               }
            }
         },
         "place_id" : "ChIJ-wU6gw_k3JQRHrmOdJCV_pI",
         "types" : [ "political", "sublocality", "sublocality_level_1" ]
      },
      {
         "address_components" : [
            {
               "long_name" : "Matriz",
               "short_name" : "Matriz",
               "types" : [ "administrative_area_level_4", "political" ]
            },
            {
               "long_name" : "Curitiba",
               "short_name" : "Curitiba",
               "types" : [ "administrative_area_level_2", "political" ]
            },
            {
               "long_name" : "State of Paraná",
               "short_name" : "PR",
               "types" : [ "administrative_area_level_1", "political" ]
            },
            {
               "long_name" : "Brazil",
               "short_name" : "BR",
               "types" : [ "country", "political" ]
            }
         ],
         "formatted_address" : "Matriz, Curitiba - State of Paraná, Brazil",
         "geometry" : {
            "bounds" : {
               "northeast" : {
                  "lat" : -25.3928639,
                  "lng" : -49.2184679
               },
               "southwest" : {
                  "lat" : -25.4688678,
                  "lng" : -49.3192934
               }
            },
            "location" : {
               "lat" : -25.4217847,
               "lng" : -49.2740045
            },
            "location_type" : "APPROXIMATE",
            "viewport" : {
               "northeast" : {
                  "lat" : -25.3928639,
                  "lng" : -49.2184679
               },
               "southwest" : {
                  "lat" : -25.4688678,
                  "lng" : -49.3192934
               }
            }
         },
         "place_id" : "ChIJSdL-QBTk3JQRTa4Zsr5CKw0",
         "types" : [ "administrative_area_level_4", "political" ]
      },
      {
         "address_components" : [
            {
               "long_name" : "Curitiba",
               "short_name" : "Curitiba",
               "types" : [ "locality", "political" ]
            },
            {
               "long_name" : "Curitiba",
               "short_name" : "Curitiba",
               "types" : [ "administrative_area_level_2", "political" ]
            },
            {
               "long_name" : "State of Paraná",
               "short_name" : "PR",
               "types" : [ "administrative_area_level_1", "political" ]
            },
            {
               "long_name" : "Brazil",
               "short_name" : "BR",
               "types" : [ "country", "political" ]
            }
         ],
         "formatted_address" : "Curitiba, State of Paraná, Brazil",
         "geometry" : {
            "bounds" : {
               "northeast" : {
                  "lat" : -25.346995,
                  "lng" : -49.1897635
               },
               "southwest" : {
                  "lat" : -25.6432382,
                  "lng" : -49.38983289999999
               }
            },
            "location" : {
               "lat" : -25.4289541,
               "lng" : -49.267137
            },
            "location_type" : "APPROXIMATE",
            "viewport" : {
               "northeast" : {
                  "lat" : -25.346995,
                  "lng" : -49.1897635
               },
               "southwest" : {
                  "lat" : -25.6432382,
                  "lng" : -49.38983289999999
               }
            }
         },
         "place_id" : "ChIJ3bPNUVPj3JQRCejLuqVrL20",
         "types" : [ "locality", "political" ]
      },
      {
         "address_components" : [
            {
               "long_name" : "Curitiba",
               "short_name" : "Curitiba",
               "types" : [ "administrative_area_level_2", "political" ]
            },
            {
               "long_name" : "State of Paraná",
               "short_name" : "PR",
               "types" : [ "administrative_area_level_1", "political" ]
            },
            {
               "long_name" : "Brazil",
               "short_name" : "BR",
               "types" : [ "country", "political" ]
            }
         ],
         "formatted_address" : "Curitiba - State of Paraná, Brazil",
         "geometry" : {
            "bounds" : {
               "northeast" : {
                  "lat" : -25.346736,
                  "lng" : -49.18522489999999
               },
               "southwest" : {
                  "lat" : -25.6453862,
                  "lng" : -49.38933859999999
               }
            },
            "location" : {
               "lat" : -25.4808762,
               "lng" : -49.3044253
            },
            "location_type" : "APPROXIMATE",
            "viewport" : {
               "northeast" : {
                  "lat" : -25.346736,
                  "lng" : -49.18522489999999
               },
               "southwest" : {
                  "lat" : -25.6453862,
                  "lng" : -49.38933859999999
               }
            }
         },
         "place_id" : "ChIJ8Q8J_PXj3JQRR7crCbCDejw",
         "types" : [ "administrative_area_level_2", "political" ]
      },
      {
         "address_components" : [
            {
               "long_name" : "State of Paraná",
               "short_name" : "PR",
               "types" : [ "administrative_area_level_1", "political" ]
            },
            {
               "long_name" : "Brazil",
               "short_name" : "BR",
               "types" : [ "country", "political" ]
            }
         ],
         "formatted_address" : "State of Paraná, Brazil",
         "geometry" : {
            "bounds" : {
               "northeast" : {
                  "lat" : -22.5166644,
                  "lng" : -48.0235303
               },
               "southwest" : {
                  "lat" : -26.7172983,
                  "lng" : -54.6192979
               }
            },
            "location" : {
               "lat" : -25.2520888,
               "lng" : -52.0215415
            },
            "location_type" : "APPROXIMATE",
            "viewport" : {
               "northeast" : {
                  "lat" : -22.5166644,
                  "lng" : -48.0235303
               },
               "southwest" : {
                  "lat" : -26.7172983,
                  "lng" : -54.6192979
               }
            }
         },
         "place_id" : "ChIJnWK4MJQL25QRYfDOY1D9k-g",
         "types" : [ "administrative_area_level_1", "political" ]
      },
      {
         "address_components" : [
            {
               "long_name" : "Brazil",
               "short_name" : "BR",
               "types" : [ "country", "political" ]
            }
         ],
         "formatted_address" : "Brazil",
         "geometry" : {
            "bounds" : {
               "northeast" : {
                  "lat" : 5.2717863,
                  "lng" : -28.650543
               },
               "southwest" : {
                  "lat" : -34.0891,
                  "lng" : -73.9828169
               }
            },
            "location" : {
               "lat" : -14.235004,
               "lng" : -51.92528
            },
            "location_type" : "APPROXIMATE",
            "viewport" : {
               "northeast" : {
                  "lat" : 5.2717863,
                  "lng" : -28.650543
               },
               "southwest" : {
                  "lat" : -34.0891,
                  "lng" : -73.9828169
               }
            }
         },
         "place_id" : "ChIJzyjM68dZnAARYz4p8gYVWik",
         "types" : [ "country", "political" ]
      }
   ],
   "status" : "OK"
}
