{
   "plus_code" : {
      "compound_code" : "HPQF+8J Curitiba, State of Paraná, Brazil",
      "global_code" : "586GHPQF+8J"
   },
   "results" : [
      {
         "address_components" : [
            {
               "long_name" : "366",
               "short_name" : "366",
               "types" : [ "street_number" ]
            },
            {
               "long_name" : "Rua Profa Maria Jose Godoy",
               "short_name" : "R. Profa Maria Jose Godoy",
               "types" : [ "route" ]
            },
            {
               "long_name" : "Bom Retiro",
               "short_name" : "Bom Retiro",
               "types" : [ "political", "sublocality", "sublocality_level_1" ]
            },
            {
               "long_name" : "Curitiba",
               "short_name" : "Curitiba",
               "types" : [ "administrative_area_level_2", "political" ]
            },
            {
               "long_name" : "Paraná",
               "short_name" : "PR",
               "types" : [ "administrative_area_level_1", "political" ]
            },
            {
               "long_name" : "Brazil",
               "short_name" : "BR",
               "types" : [ "country", "political" ]
            },
            {
               "long_name" : "80520-220",
               "short_name" : "80520-220",
               "types" : [ "postal_code" ]
            }
         ],
         "formatted_address" : "R. Profa Maria Jose Godoy, 366 - Bom Retiro, Curitiba - PR, 80520-220, Brazil",
         "geometry" : {
            "location" : {
               "lat" : -25.411645,
               "lng" : -49.276328
            },
            "location_type" : "ROOFTOP",
            "viewport" : {
               "northeast" : {
                  "lat" : -25.4102960197085,
                  "lng" : -49.2749790197085
               },
               "southwest" : {
                  "lat" : -25.4129939802915,
                  "lng" : -49.2776769802915
               }
            }
         },
         "place_id" : "ChIJ1XC8Najm3JQRS9d5dc1jFWQ",
         "plus_code" : {
            "compound_code" : "HPQF+8F Curitiba, State of Paraná, Brazil",
            "global_code" : "586GHPQF+8F"
         },
         "types" : [ "street_address" ]
      },
      {
         "address_components" : [
            {
               "long_name" : "350",
               "short_name" : "350",
               "types" : [ "street_number" ]
            },
            {
               "long_name" : "Rua Professor Maria José Godoy",
               "short_name" : "Rua Professor Maria José Godoy",
               "types" : [ "route" ]
            },
            {
               "long_name" : "Bom Retiro",
               "short_name" : "Bom Retiro",
               "types" : [ "political", "sublocality", "sublocality_level_1" ]
            },
            {
               "long_name" : "Curitiba",
               "short_name" : "Curitiba",
               "types" : [ "administrative_area_level_2", "political" ]
            },
            {
               "long_name" : "Paraná",
               "short_name" : "PR",
               "types" : [ "administrative_area_level_1", "political" ]
            },
            {
               "long_name" : "Brazil",
               "short_name" : "BR",
               "types" : [ "country", "political" ]
            },
            {
               "long_name" : "80520-220",
               "short_name" : "80520-220",
               "types" : [ "postal_code" ]
            }
         ],
         "formatted_address" : "Rua Professor Maria José Godoy, 350 - Bom Retiro, Curitiba - PR, 80520-220, Brazil",
         "geometry" : {
            "bounds" : {
               "northeast" : {
                  "lat" : -25.411711,
                  "lng" : -49.2762796
               },
               "southwest" : {
                  "lat" : -25.4118014,
                  "lng" : -49.2763915
               }
            },
            "location" : {
               "lat" : -25.4117763,
               "lng" : -49.276331
            },
            "location_type" : "ROOFTOP",
            "viewport" : {
               "northeast" : {
                  "lat" : -25.4104072197085,
                  "lng" : -49.2749865697085
               },
               "southwest" : {
                  "lat" : -25.4131051802915,
                  "lng" : -49.27768453029149
               }
            }
         },
         "place_id" : "ChIJlz5pNKjm3JQR_HpPJ3KdL1Y",
         "types" : [ "premise" ]
      },
      {
         "address_components" : [
            {
               "long_name" : "374",
               "short_name" : "374",
               "types" : [ "street_number" ]
            },
            {
               "long_name" : "Rua Professor Maria José Godoy",
               "short_name" : "Rua Professor Maria José Godoy",
               "types" : [ "route" ]
            },
            {
               "long_name" : "Bom Retiro",
               "short_name" : "Bom Retiro",
               "types" : [ "political", "sublocality", "sublocality_level_1" ]
            },
            {
               "long_name" : "Curitiba",
               "short_name" : "Curitiba",
               "types" : [ "administrative_area_level_2", "political" ]
            },
            {
               "long_name" : "Paraná",
               "short_name" : "PR",
               "types" : [ "administrative_area_level_1", "political" ]
            },
            {
               "long_name" : "Brazil",
               "short_name" : "BR",
               "types" : [ "country", "political" ]
            },
            {
               "long_name" : "80520-220",
               "short_name" : "80520-220",
               "types" : [ "postal_code" ]
            }
         ],
         "formatted_address" : "Rua Professor Maria José Godoy, 374 - Bom Retiro, Curitiba - PR, 80520-220, Brazil",
         "geometry" : {
            "location" : {
               "lat" : -25.411548,
               "lng" : -49.2764616
            },
            "location_type" : "RANGE_INTERPOLATED",
            "viewport" : {
               "northeast" : {
                  "lat" : -25.4101990197085,
                  "lng" : -49.27511261970849
               },
               "southwest" : {
                  "lat" : -25.41289698029151,
                  "lng" : -49.27781058029149
               }
            }
         },
         "place_id" : "ElNSdWEgUHJvZmVzc29yIE1hcmlhIEpvc8OpIEdvZG95LCAzNzQgLSBCb20gUmV0aXJvLCBDdXJpdGliYSAtIFBSLCA4MDUyMC0yMjAsIEJyYXppbCIbEhkKFAoSCZOZgkyo5tyUEbImOJqIuwuEEPYC",
         "types" : [ "street_address" ]
      },
      {
         "address_components" : [
            {
               "long_name" : "316-516",
               "short_name" : "316-516",
               "types" : [ "street_number" ]
            },
            {
               "long_name" : "Rua Professor Maria José Godoy",
               "short_name" : "Rua Professor Maria José Godoy",
               "types" : [ "route" ]
            },
            {
               "long_name" : "Bom Retiro",
               "short_name" : "Bom Retiro",
               "types" : [ "political", "sublocality", "sublocality_level_1" ]
            },
            {
               "long_name" : "Curitiba",
               "short_name" : "Curitiba",
               "types" : [ "administrative_area_level_2", "political" ]
            },
            {
               "long_name" : "Paraná",
               "short_name" : "PR",
               "types" : [ "administrative_area_level_1", "political" ]
            },
            {
               "long_name" : "Brazil",
               "short_name" : "BR",
               "types" : [ "country", "political" ]
            },
            {
               "long_name" : "80520-220",
               "short_name" : "80520-220",
               "types" : [ "postal_code" ]
            }
         ],
         "formatted_address" : "Rua Professor Maria José Godoy, 316-516 - Bom Retiro, Curitiba - PR, 80520-220, Brazil",
         "geometry" : {
            "bounds" : {
               "northeast" : {
                  "lat" : -25.4103902,
                  "lng" : -49.2761599
               },
               "southwest" : {
                  "lat" : -25.4121689,
                  "lng" : -49.2766274
               }
            },
            "location" : {
               "lat" : -25.4112803,
               "lng" : -49.27639
            },
            "location_type" : "GEOMETRIC_CENTER",
            "viewport" : {
               "northeast" : {
                  "lat" : -25.4099305697085,
                  "lng" : -49.2750446697085
               },
               "southwest" : {
                  "lat" : -25.4126285302915,
                  "lng" : -49.2777426302915
               }
            }
         },
         "place_id" : "ChIJk5mCTKjm3JQRsiY4moi7C4Q",
         "types" : [ "route" ]
      },
      {
         "address_components" : [
            {
               "long_name" : "80520",
               "short_name" : "80520",
               "types" : [ "postal_code", "postal_code_prefix" ]
            },
            {
               "long_name" : "Bom Retiro",
               "short_name" : "Bom Retiro",
               "types" : [ "political", "sublocality", "sublocality_level_1" ]
            },
            {
               "long_name" : "Curitiba",
               "short_name" : "Curitiba",
               "types" : [ "administrative_area_level_2", "political" ]
            },
            {
               "long_name" : "State of Paraná",
               "short_name" : "PR",
               "types" : [ "administrative_area_level_1", "political" ]
            },
            {
               "long_name" : "Brazil",
               "short_name" : "BR",
               "types" : [ "country", "political" ]
            }
         ],
         "formatted_address" : "Bom Retiro, Curitiba - State of Paraná, 80520, Brazil",
         "geometry" : {
            "bounds" : {
               "northeast" : {
                  "lat" : -25.4057204,
                  "lng" : -49.2693739
               },
               "southwest" : {
                  "lat" : -25.4182385,
                  "lng" : -49.2856304
               }
            },
            "location" : {
               "lat" : -25.4144905,
               "lng" : -49.27780629999999
            },
            "location_type" : "APPROXIMATE",
            "viewport" : {
               "northeast" : {
                  "lat" : -25.4057204,
                  "lng" : -49.2693739
               },
               "southwest" : {
                  "lat" : -25.4182385,
                  "lng" : -49.2856304
               }
            }
         },
         "place_id" : "ChIJS4-twKnm3JQREKaAWybt2Zs",
         "types" : [ "postal_code", "postal_code_prefix" ]
      },
      {
         "address_components" : [
            {
               "long_name" : "Bom Retiro",
               "short_name" : "Bom Retiro",
               "types" : [ "political", "sublocality", "sublocality_level_1" ]
            },
            {
               "long_name" : "Curitiba",
               "short_name" : "Curitiba",
               "types" : [ "administrative_area_level_2", "political" ]
            },
            {
               "long_name" : "State of Paraná",
               "short_name" : "PR",
               "types" : [ "administrative_area_level_1", "political" ]
            },
            {
               "long_name" : "Brazil",
               "short_name" : "BR",
               "types" : [ "country", "political" ]
            }
         ],
         "formatted_address" : "Bom Retiro, Curitiba - State of Paraná, Brazil",
         "geometry" : {
            "bounds" : {
               "northeast" : {
                  "lat" : -25.4010247,
                  "lng" : -49.2710441
               },
               "southwest" : {
                  "lat" : -25.4181284,
                  "lng" : -49.2846653
               }
            },
            "location" : {
               "lat" : -25.4104438,
               "lng" : -49.2754135
            },
            "location_type" : "APPROXIMATE",
            "viewport" : {
               "northeast" : {
                  "lat" : -25.4010247,
                  "lng" : -49.2710441
               },
               "southwest" : {
                  "lat" : -25.4181284,
                  "lng" : -49.2846653
               }
            }
         },
         "place_id" : "ChIJ64Sgaqnm3JQRXUd0HsvO--w",
         "types" : [ "political", "sublocality", "sublocality_level_1" ]
      },
      {
         "address_components" : [
            {
               "long_name" : "Matriz",
               "short_name" : "Matriz",
               "types" : [ "administrative_area_level_4", "political" ]
            },
            {
               "long_name" : "Curitiba",
               "short_name" : "Curitiba",
               "types" : [ "administrative_area_level_2", "political" ]
            },
            {
               "long_name" : "State of Paraná",
               "short_name" : "PR",
               "types" : [ "administrative_area_level_1", "political" ]
            },
            {
               "long_name" : "Brazil",
               "short_name" : "BR",
               "types" : [ "country", "political" ]
            }
         ],
         "formatted_address" : "Matriz, Curitiba - State of Paraná, Brazil",
         "geometry" : {
            "bounds" : {
               "northeast" : {
                  "lat" : -25.3928639,
                  "lng" : -49.2184679
               },
               "southwest" : {
                  "lat" : -25.4688678,
                  "lng" : -49.3192934
               }
            },
            "location" : {
               "lat" : -25.4217847,
               "lng" : -49.2740045
            },
            "location_type" : "APPROXIMATE",
            "viewport" : {
               "northeast" : {
                  "lat" : -25.3928639,
                  "lng" : -49.2184679
               },
               "southwest" : {
                  "lat" : -25.4688678,
                  "lng" : -49.3192934
               }
            }
         },
         "place_id" : "ChIJSdL-QBTk3JQRTa4Zsr5CKw0",
         "types" : [ "administrative_area_level_4", "political" ]
      },
      {
         "address_components" : [
            {
               "long_name" : "Curitiba",
               "short_name" : "Curitiba",
               "types" : [ "locality", "political" ]
            },
            {
               "long_name" : "Curitiba",
               "short_name" : "Curitiba",
               "types" : [ "administrative_area_level_2", "political" ]
            },
            {
               "long_name" : "State of Paraná",
               "short_name" : "PR",
               "types" : [ "administrative_area_level_1", "political" ]
            },
            {
               "long_name" : "Brazil",
               "short_name" : "BR",
               "types" : [ "country", "political" ]
            }
         ],
         "formatted_address" : "Curitiba, State of Paraná, Brazil",
         "geometry" : {
            "bounds" : {
               "northeast" : {
                  "lat" : -25.346995,
                  "lng" : -49.1897635
               },
               "southwest" : {
                  "lat" : -25.6432382,
                  "lng" : -49.38983289999999
               }
            },
            "location" : {
               "lat" : -25.4289541,
               "lng" : -49.267137
            },
            "location_type" : "APPROXIMATE",
            "viewport" : {
               "northeast" : {
                  "lat" : -25.346995,
                  "lng" : -49.1897635
               },
               "southwest" : {
                  "lat" : -25.6432382,
                  "lng" : -49.38983289999999
               }
            }
         },
         "place_id" : "ChIJ3bPNUVPj3JQRCejLuqVrL20",
         "types" : [ "locality", "political" ]
      },
      {
         "address_components" : [
            {
               "long_name" : "Curitiba",
               "short_name" : "Curitiba",
               "types" : [ "administrative_area_level_2", "political" ]
            },
            {
               "long_name" : "State of Paraná",
               "short_name" : "PR",
               "types" : [ "administrative_area_level_1", "political" ]
            },
            {
               "long_name" : "Brazil",
               "short_name" : "BR",
               "types" : [ "country", "political" ]
            }
         ],
         "formatted_address" : "Curitiba - State of Paraná, Brazil",
         "geometry" : {
            "bounds" : {
               "northeast" : {
                  "lat" : -25.346736,
                  "lng" : -49.18522489999999
               },
               "southwest" : {
                  "lat" : -25.6453862,
                  "lng" : -49.38933859999999
               }
            },
            "location" : {
               "lat" : -25.4808762,
               "lng" : -49.3044253
            },
            "location_type" : "APPROXIMATE",
            "viewport" : {
               "northeast" : {
                  "lat" : -25.346736,
                  "lng" : -49.18522489999999
               },
               "southwest" : {
                  "lat" : -25.6453862,
                  "lng" : -49.38933859999999
               }
            }
         },
         "place_id" : "ChIJ8Q8J_PXj3JQRR7crCbCDejw",
         "types" : [ "administrative_area_level_2", "political" ]
      },
      {
         "address_components" : [
            {
               "long_name" : "State of Paraná",
               "short_name" : "PR",
               "types" : [ "administrative_area_level_1", "political" ]
            },
            {
               "long_name" : "Brazil",
               "short_name" : "BR",
               "types" : [ "country", "political" ]
            }
         ],
         "formatted_address" : "State of Paraná, Brazil",
         "geometry" : {
            "bounds" : {
               "northeast" : {
                  "lat" : -22.5166644,
                  "lng" : -48.0235303
               },
               "southwest" : {
                  "lat" : -26.7172983,
                  "lng" : -54.6192979
               }
            },
            "location" : {
               "lat" : -25.2520888,
               "lng" : -52.0215415
            },
            "location_type" : "APPROXIMATE",
            "viewport" : {
               "northeast" : {
                  "lat" : -22.5166644,
                  "lng" : -48.0235303
               },
               "southwest" : {
                  "lat" : -26.7172983,
                  "lng" : -54.6192979
               }
            }
         },
         "place_id" : "ChIJnWK4MJQL25QRYfDOY1D9k-g",
         "types" : [ "administrative_area_level_1", "political" ]
      },
      {
         "address_components" : [
            {
               "long_name" : "Brazil",
               "short_name" : "BR",
               "types" : [ "country", "political" ]
            }
         ],
         "formatted_address" : "Brazil",
         "geometry" : {
            "bounds" : {
               "northeast" : {
                  "lat" : 5.2717863,
                  "lng" : -28.650543
               },
               "southwest" : {
                  "lat" : -34.0891,
                  "lng" : -73.9828169
               }
            },
            "location" : {
               "lat" : -14.235004,
               "lng" : -51.92528
            },
            "location_type" : "APPROXIMATE",
            "viewport" : {
               "northeast" : {
                  "lat" : 5.2717863,
                  "lng" : -28.650543
               },
               "southwest" : {
                  "lat" : -34.0891,
                  "lng" : -73.9828169
               }
            }
         },
         "place_id" : "ChIJzyjM68dZnAARYz4p8gYVWik",
         "types" : [ "country", "political" ]
      }
   ],
   "status" : "OK"
}
