{
   "plus_code" : {
      "compound_code" : "JP4F+8J Curitiba, State of Paraná, Brazil",
      "global_code" : "586GJP4F+8J"
   },
   "results" : [
      {
         "address_components" : [
            {
               "long_name" : "978",
               "short_name" : "978",
               "types" : [ "street_number" ]
            },
            {
               "long_name" : "Rua Francisco Caron",
               "short_name" : "Rua Francisco Caron",
               "types" : [ "route" ]
            },
            {
               "long_name" : "Pilarzinho",
               "short_name" : "Pilarzinho",
               "types" : [ "political", "sublocality", "sublocality_level_1" ]
            },
            {
               "long_name" : "Curitiba",
               "short_name" : "Curitiba",
               "types" : [ "administrative_area_level_2", "political" ]
            },
            {
               "long_name" : "Paraná",
               "short_name" : "PR",
               "types" : [ "administrative_area_level_1", "political" ]
            },
            {
               "long_name" : "Brazil",
               "short_name" : "BR",
               "types" : [ "country", "political" ]
            },
            {
               "long_name" : "82120-200",
               "short_name" : "82120-200",
               "types" : [ "postal_code" ]
            }
         ],
         "formatted_address" : "Rua Francisco Caron, 978 - Pilarzinho, Curitiba - PR, 82120-200, Brazil",
         "geometry" : {
            "location" : {
               "lat" : -25.394227,
               "lng" : -49.27593599999999
            },
            "location_type" : "ROOFTOP",
            "viewport" : {
               "northeast" : {
                  "lat" : -25.39287801970849,
                  "lng" : -49.27458701970849
               },
               "southwest" : {
                  "lat" : -25.3955759802915,
                  "lng" : -49.27728498029149
               }
            }
         },
         "place_id" : "ChIJP6oNyLfm3JQRWCtxFyX8ekg",
         "plus_code" : {
            "compound_code" : "JP4F+8J Curitiba, State of Paraná, Brazil",
            "global_code" : "586GJP4F+8J"
         },
         "types" : [ "street_address" ]
      },
      {
         "address_components" : [
            {
               "long_name" : "257",
               "short_name" : "257",
               "types" : [ "street_number" ]
            },
            {
               "long_name" : "Rua Cipriano Antônio Rigotto",
               "short_name" : "Rua Cipriano Antônio Rigotto",
               "types" : [ "route" ]
            },
            {
               "long_name" : "Pilarzinho",
               "short_name" : "Pilarzinho",
               "types" : [ "political", "sublocality", "sublocality_level_1" ]
            },
            {
               "long_name" : "Curitiba",
               "short_name" : "Curitiba",
               "types" : [ "administrative_area_level_2", "political" ]
            },
            {
               "long_name" : "Paraná",
               "short_name" : "PR",
               "types" : [ "administrative_area_level_1", "political" ]
            },
            {
               "long_name" : "Brazil",
               "short_name" : "BR",
               "types" : [ "country", "political" ]
            },
            {
               "long_name" : "82120-210",
               "short_name" : "82120-210",
               "types" : [ "postal_code" ]
            }
         ],
         "formatted_address" : "Rua Cipriano Antônio Rigotto, 257 - Pilarzinho, Curitiba - PR, 82120-210, Brazil",
         "geometry" : {
            "bounds" : {
               "northeast" : {
                  "lat" : -25.3942817,
                  "lng" : -49.2752171
               },
               "southwest" : {
                  "lat" : -25.3944193,
                  "lng" : -49.27536629999999
               }
            },
            "location" : {
               "lat" : -25.3943654,
               "lng" : -49.27529149999999
            },
            "location_type" : "ROOFTOP",
            "viewport" : {
               "northeast" : {
                  "lat" : -25.3930015197085,
                  "lng" : -49.2739427197085
               },
               "southwest" : {
                  "lat" : -25.3956994802915,
                  "lng" : -49.2766406802915
               }
            }
         },
         "place_id" : "ChIJiaAEvrfm3JQRAc2X3gUm7CA",
         "types" : [ "premise" ]
      },
      {
         "address_components" : [
            {
               "long_name" : "246",
               "short_name" : "246",
               "types" : [ "street_number" ]
            },
            {
               "long_name" : "Rua Cipriano Antônio Rigotto",
               "short_name" : "Rua Cipriano Antônio Rigotto",
               "types" : [ "route" ]
            },
            {
               "long_name" : "Pilarzinho",
               "short_name" : "Pilarzinho",
               "types" : [ "political", "sublocality", "sublocality_level_1" ]
            },
            {
               "long_name" : "Curitiba",
               "short_name" : "Curitiba",
               "types" : [ "administrative_area_level_2", "political" ]
            },
            {
               "long_name" : "Paraná",
               "short_name" : "PR",
               "types" : [ "administrative_area_level_1", "political" ]
            },
            {
               "long_name" : "Brazil",
               "short_name" : "BR",
               "types" : [ "country", "political" ]
            },
            {
               "long_name" : "82120-210",
               "short_name" : "82120-210",
               "types" : [ "postal_code" ]
            }
         ],
         "formatted_address" : "Rua Cipriano Antônio Rigotto, 246 - Pilarzinho, Curitiba - PR, 82120-210, Brazil",
         "geometry" : {
            "location" : {
               "lat" : -25.3941936,
               "lng" : -49.2751051
            },
            "location_type" : "ROOFTOP",
            "viewport" : {
               "northeast" : {
                  "lat" : -25.39284461970849,
                  "lng" : -49.2737561197085
               },
               "southwest" : {
                  "lat" : -25.3955425802915,
                  "lng" : -49.2764540802915
               }
            }
         },
         "place_id" : "ChIJ5ynJnrnl3JQR9o0n1Yvg1HU",
         "plus_code" : {
            "compound_code" : "JP4F+8X Curitiba, State of Paraná, Brazil",
            "global_code" : "586GJP4F+8X"
         },
         "types" : [ "establishment", "point_of_interest" ]
      },
      {
         "address_components" : [
            {
               "long_name" : "369",
               "short_name" : "369",
               "types" : [ "street_number" ]
            },
            {
               "long_name" : "Rua Francisco Caron",
               "short_name" : "Rua Francisco Caron",
               "types" : [ "route" ]
            },
            {
               "long_name" : "Pilarzinho",
               "short_name" : "Pilarzinho",
               "types" : [ "political", "sublocality", "sublocality_level_1" ]
            },
            {
               "long_name" : "Curitiba",
               "short_name" : "Curitiba",
               "types" : [ "administrative_area_level_2", "political" ]
            },
            {
               "long_name" : "Paraná",
               "short_name" : "PR",
               "types" : [ "administrative_area_level_1", "political" ]
            },
            {
               "long_name" : "Brazil",
               "short_name" : "BR",
               "types" : [ "country", "political" ]
            },
            {
               "long_name" : "82120-200",
               "short_name" : "82120-200",
               "types" : [ "postal_code" ]
            }
         ],
         "formatted_address" : "Rua Francisco Caron, 369 - Pilarzinho, Curitiba - PR, 82120-200, Brazil",
         "geometry" : {
            "location" : {
               "lat" : -25.3943467,
               "lng" : -49.2760598
            },
            "location_type" : "RANGE_INTERPOLATED",
            "viewport" : {
               "northeast" : {
                  "lat" : -25.3929977197085,
                  "lng" : -49.2747108197085
               },
               "southwest" : {
                  "lat" : -25.39569568029151,
                  "lng" : -49.27740878029149
               }
            }
         },
         "place_id" : "EkdSdWEgRnJhbmNpc2NvIENhcm9uLCAzNjkgLSBQaWxhcnppbmhvLCBDdXJpdGliYSAtIFBSLCA4MjEyMC0yMDAsIEJyYXppbCIbEhkKFAoSCWupC6W35tyUER-SD_FBZYB4EPEC",
         "types" : [ "street_address" ]
      },
      {
         "address_components" : [
            {
               "long_name" : "2-598",
               "short_name" : "2-598",
               "types" : [ "street_number" ]
            },
            {
               "long_name" : "Rua Francisco Caron",
               "short_name" : "Rua Francisco Caron",
               "types" : [ "route" ]
            },
            {
               "long_name" : "Pilarzinho",
               "short_name" : "Pilarzinho",
               "types" : [ "political", "sublocality", "sublocality_level_1" ]
            },
            {
               "long_name" : "Curitiba",
               "short_name" : "Curitiba",
               "types" : [ "administrative_area_level_2", "political" ]
            },
            {
               "long_name" : "Paraná",
               "short_name" : "PR",
               "types" : [ "administrative_area_level_1", "political" ]
            },
            {
               "long_name" : "Brazil",
               "short_name" : "BR",
               "types" : [ "country", "political" ]
            },
            {
               "long_name" : "82120-200",
               "short_name" : "82120-200",
               "types" : [ "postal_code" ]
            }
         ],
         "formatted_address" : "Rua Francisco Caron, 2-598 - Pilarzinho, Curitiba - PR, 82120-200, Brazil",
         "geometry" : {
            "bounds" : {
               "northeast" : {
                  "lat" : -25.3934153,
                  "lng" : -49.2734749
               },
               "southwest" : {
                  "lat" : -25.3965021,
                  "lng" : -49.2782083
               }
            },
            "location" : {
               "lat" : -25.3946635,
               "lng" : -49.2755895
            },
            "location_type" : "GEOMETRIC_CENTER",
            "viewport" : {
               "northeast" : {
                  "lat" : -25.3934153,
                  "lng" : -49.2734749
               },
               "southwest" : {
                  "lat" : -25.3965021,
                  "lng" : -49.2782083
               }
            }
         },
         "place_id" : "ChIJa6kLpbfm3JQRHpIP8UFlgHg",
         "types" : [ "route" ]
      },
      {
         "address_components" : [
            {
               "long_name" : "82120-200",
               "short_name" : "82120-200",
               "types" : [ "postal_code" ]
            },
            {
               "long_name" : "Pilarzinho",
               "short_name" : "Pilarzinho",
               "types" : [ "political", "sublocality", "sublocality_level_1" ]
            },
            {
               "long_name" : "Curitiba",
               "short_name" : "Curitiba",
               "types" : [ "administrative_area_level_2", "political" ]
            },
            {
               "long_name" : "State of Paraná",
               "short_name" : "PR",
               "types" : [ "administrative_area_level_1", "political" ]
            },
            {
               "long_name" : "Brazil",
               "short_name" : "BR",
               "types" : [ "country", "political" ]
            }
         ],
         "formatted_address" : "Pilarzinho, Curitiba - State of Paraná, 82120-200, Brazil",
         "geometry" : {
            "bounds" : {
               "northeast" : {
                  "lat" : -25.3926497,
                  "lng" : -49.2736408
               },
               "southwest" : {
                  "lat" : -25.3972312,
                  "lng" : -49.2833192
               }
            },
            "location" : {
               "lat" : -25.3945058,
               "lng" : -49.2774894
            },
            "location_type" : "APPROXIMATE",
            "viewport" : {
               "northeast" : {
                  "lat" : -25.3926497,
                  "lng" : -49.2736408
               },
               "southwest" : {
                  "lat" : -25.3972312,
                  "lng" : -49.2833192
               }
            }
         },
         "place_id" : "ChIJV6YPpbfm3JQRWGojWTa8djw",
         "types" : [ "postal_code" ]
      },
      {
         "address_components" : [
            {
               "long_name" : "82120",
               "short_name" : "82120",
               "types" : [ "postal_code", "postal_code_prefix" ]
            },
            {
               "long_name" : "Pilarzinho",
               "short_name" : "Pilarzinho",
               "types" : [ "political", "sublocality", "sublocality_level_1" ]
            },
            {
               "long_name" : "Curitiba",
               "short_name" : "Curitiba",
               "types" : [ "administrative_area_level_2", "political" ]
            },
            {
               "long_name" : "State of Paraná",
               "short_name" : "PR",
               "types" : [ "administrative_area_level_1", "political" ]
            },
            {
               "long_name" : "Brazil",
               "short_name" : "BR",
               "types" : [ "country", "political" ]
            }
         ],
         "formatted_address" : "Pilarzinho, Curitiba - State of Paraná, 82120, Brazil",
         "geometry" : {
            "bounds" : {
               "northeast" : {
                  "lat" : -25.3793311,
                  "lng" : -49.27022909999999
               },
               "southwest" : {
                  "lat" : -25.3981588,
                  "lng" : -49.28801050000001
               }
            },
            "location" : {
               "lat" : -25.3876214,
               "lng" : -49.2816082
            },
            "location_type" : "APPROXIMATE",
            "viewport" : {
               "northeast" : {
                  "lat" : -25.3793311,
                  "lng" : -49.27022909999999
               },
               "southwest" : {
                  "lat" : -25.3981588,
                  "lng" : -49.28801050000001
               }
            }
         },
         "place_id" : "ChIJJcSPAszm3JQRAwB9Y91B3xw",
         "types" : [ "postal_code", "postal_code_prefix" ]
      },
      {
         "address_components" : [
            {
               "long_name" : "Pilarzinho",
               "short_name" : "Pilarzinho",
               "types" : [ "political", "sublocality", "sublocality_level_1" ]
            },
            {
               "long_name" : "Curitiba",
               "short_name" : "Curitiba",
               "types" : [ "administrative_area_level_2", "political" ]
            },
            {
               "long_name" : "State of Paraná",
               "short_name" : "PR",
               "types" : [ "administrative_area_level_1", "political" ]
            },
            {
               "long_name" : "Brazil",
               "short_name" : "BR",
               "types" : [ "country", "political" ]
            }
         ],
         "formatted_address" : "Pilarzinho, Curitiba - State of Paraná, Brazil",
         "geometry" : {
            "bounds" : {
               "northeast" : {
                  "lat" : -25.3750081,
                  "lng" : -49.2711122
               },
               "southwest" : {
                  "lat" : -25.4041924,
                  "lng" : -49.3052765
               }
            },
            "location" : {
               "lat" : -25.39629,
               "lng" : -49.2875992
            },
            "location_type" : "APPROXIMATE",
            "viewport" : {
               "northeast" : {
                  "lat" : -25.3750081,
                  "lng" : -49.2711122
               },
               "southwest" : {
                  "lat" : -25.4041924,
                  "lng" : -49.3052765
               }
            }
         },
         "place_id" : "ChIJWQuM6zPh3JQR1_AE4OwV5jU",
         "types" : [ "political", "sublocality", "sublocality_level_1" ]
      },
      {
         "address_components" : [
            {
               "long_name" : "Curitiba",
               "short_name" : "Curitiba",
               "types" : [ "locality", "political" ]
            },
            {
               "long_name" : "Curitiba",
               "short_name" : "Curitiba",
               "types" : [ "administrative_area_level_2", "political" ]
            },
            {
               "long_name" : "State of Paraná",
               "short_name" : "PR",
               "types" : [ "administrative_area_level_1", "political" ]
            },
            {
               "long_name" : "Brazil",
               "short_name" : "BR",
               "types" : [ "country", "political" ]
            }
         ],
         "formatted_address" : "Curitiba, State of Paraná, Brazil",
         "geometry" : {
            "bounds" : {
               "northeast" : {
                  "lat" : -25.346995,
                  "lng" : -49.1897635
               },
               "southwest" : {
                  "lat" : -25.6432382,
                  "lng" : -49.38983289999999
               }
            },
            "location" : {
               "lat" : -25.4289541,
               "lng" : -49.267137
            },
            "location_type" : "APPROXIMATE",
            "viewport" : {
               "northeast" : {
                  "lat" : -25.346995,
                  "lng" : -49.1897635
               },
               "southwest" : {
                  "lat" : -25.6432382,
                  "lng" : -49.38983289999999
               }
            }
         },
         "place_id" : "ChIJ3bPNUVPj3JQRCejLuqVrL20",
         "types" : [ "locality", "political" ]
      },
      {
         "address_components" : [
            {
               "long_name" : "Curitiba",
               "short_name" : "Curitiba",
               "types" : [ "administrative_area_level_2", "political" ]
            },
            {
               "long_name" : "State of Paraná",
               "short_name" : "PR",
               "types" : [ "administrative_area_level_1", "political" ]
            },
            {
               "long_name" : "Brazil",
               "short_name" : "BR",
               "types" : [ "country", "political" ]
            }
         ],
         "formatted_address" : "Curitiba - State of Paraná, Brazil",
         "geometry" : {
            "bounds" : {
               "northeast" : {
                  "lat" : -25.346736,
                  "lng" : -49.18522489999999
               },
               "southwest" : {
                  "lat" : -25.6453862,
                  "lng" : -49.38933859999999
               }
            },
            "location" : {
               "lat" : -25.4808762,
               "lng" : -49.3044253
            },
            "location_type" : "APPROXIMATE",
            "viewport" : {
               "northeast" : {
                  "lat" : -25.346736,
                  "lng" : -49.18522489999999
               },
               "southwest" : {
                  "lat" : -25.6453862,
                  "lng" : -49.38933859999999
               }
            }
         },
         "place_id" : "ChIJ8Q8J_PXj3JQRR7crCbCDejw",
         "types" : [ "administrative_area_level_2", "political" ]
      },
      {
         "address_components" : [
            {
               "long_name" : "State of Paraná",
               "short_name" : "PR",
               "types" : [ "administrative_area_level_1", "political" ]
            },
            {
               "long_name" : "Brazil",
               "short_name" : "BR",
               "types" : [ "country", "political" ]
            }
         ],
         "formatted_address" : "State of Paraná, Brazil",
         "geometry" : {
            "bounds" : {
               "northeast" : {
                  "lat" : -22.5166644,
                  "lng" : -48.0235303
               },
               "southwest" : {
                  "lat" : -26.7172983,
                  "lng" : -54.6192979
               }
            },
            "location" : {
               "lat" : -25.2520888,
               "lng" : -52.0215415
            },
            "location_type" : "APPROXIMATE",
            "viewport" : {
               "northeast" : {
                  "lat" : -22.5166644,
                  "lng" : -48.0235303
               },
               "southwest" : {
                  "lat" : -26.7172983,
                  "lng" : -54.6192979
               }
            }
         },
         "place_id" : "ChIJnWK4MJQL25QRYfDOY1D9k-g",
         "types" : [ "administrative_area_level_1", "political" ]
      },
      {
         "address_components" : [
            {
               "long_name" : "Brazil",
               "short_name" : "BR",
               "types" : [ "country", "political" ]
            }
         ],
         "formatted_address" : "Brazil",
         "geometry" : {
            "bounds" : {
               "northeast" : {
                  "lat" : 5.2717863,
                  "lng" : -28.650543
               },
               "southwest" : {
                  "lat" : -34.0891,
                  "lng" : -73.9828169
               }
            },
            "location" : {
               "lat" : -14.235004,
               "lng" : -51.92528
            },
            "location_type" : "APPROXIMATE",
            "viewport" : {
               "northeast" : {
                  "lat" : 5.2717863,
                  "lng" : -28.650543
               },
               "southwest" : {
                  "lat" : -34.0891,
                  "lng" : -73.9828169
               }
            }
         },
         "place_id" : "ChIJzyjM68dZnAARYz4p8gYVWik",
         "types" : [ "country", "political" ]
      }
   ],
   "status" : "OK"
}
