{
   "plus_code" : {
      "compound_code" : "JP5P+W8 Curitiba, State of Paraná, Brazil",
      "global_code" : "586GJP5P+W8"
   },
   "results" : [
      {
         "address_components" : [
            {
               "long_name" : "65",
               "short_name" : "65",
               "types" : [ "street_number" ]
            },
            {
               "long_name" : "Rua Wagia Kassab Khury",
               "short_name" : "R. Wagia Kassab Khury",
               "types" : [ "route" ]
            },
            {
               "long_name" : "São Lourenço",
               "short_name" : "São Lourenço",
               "types" : [ "political", "sublocality", "sublocality_level_1" ]
            },
            {
               "long_name" : "Curitiba",
               "short_name" : "Curitiba",
               "types" : [ "administrative_area_level_2", "political" ]
            },
            {
               "long_name" : "Paraná",
               "short_name" : "PR",
               "types" : [ "administrative_area_level_1", "political" ]
            },
            {
               "long_name" : "Brazil",
               "short_name" : "BR",
               "types" : [ "country", "political" ]
            },
            {
               "long_name" : "82210-100",
               "short_name" : "82210-100",
               "types" : [ "postal_code" ]
            }
         ],
         "formatted_address" : "R. Wagia Kassab Khury, 65 - São Lourenço, Curitiba - PR, 82210-100, Brazil",
         "geometry" : {
            "location" : {
               "lat" : -25.390217,
               "lng" : -49.2640699
            },
            "location_type" : "ROOFTOP",
            "viewport" : {
               "northeast" : {
                  "lat" : -25.3888680197085,
                  "lng" : -49.2627209197085
               },
               "southwest" : {
                  "lat" : -25.3915659802915,
                  "lng" : -49.2654188802915
               }
            }
         },
         "place_id" : "ChIJa0Hl4L_m3JQRrhNUMKlqIDE",
         "plus_code" : {
            "compound_code" : "JP5P+W9 Curitiba, State of Paraná, Brazil",
            "global_code" : "586GJP5P+W9"
         },
         "types" : [ "street_address" ]
      },
      {
         "address_components" : [
            {
               "long_name" : "74",
               "short_name" : "74",
               "types" : [ "street_number" ]
            },
            {
               "long_name" : "Rua Wagia Kassab Khury",
               "short_name" : "R. Wagia Kassab Khury",
               "types" : [ "route" ]
            },
            {
               "long_name" : "São Lourenço",
               "short_name" : "São Lourenço",
               "types" : [ "political", "sublocality", "sublocality_level_1" ]
            },
            {
               "long_name" : "Curitiba",
               "short_name" : "Curitiba",
               "types" : [ "administrative_area_level_2", "political" ]
            },
            {
               "long_name" : "Paraná",
               "short_name" : "PR",
               "types" : [ "administrative_area_level_1", "political" ]
            },
            {
               "long_name" : "Brazil",
               "short_name" : "BR",
               "types" : [ "country", "political" ]
            },
            {
               "long_name" : "82210-100",
               "short_name" : "82210-100",
               "types" : [ "postal_code" ]
            }
         ],
         "formatted_address" : "R. Wagia Kassab Khury, 74 - São Lourenço, Curitiba - PR, 82210-100, Brazil",
         "geometry" : {
            "bounds" : {
               "northeast" : {
                  "lat" : -25.3897567,
                  "lng" : -49.2641579
               },
               "southwest" : {
                  "lat" : -25.3899646,
                  "lng" : -49.2643497
               }
            },
            "location" : {
               "lat" : -25.3898776,
               "lng" : -49.264244
            },
            "location_type" : "ROOFTOP",
            "viewport" : {
               "northeast" : {
                  "lat" : -25.3885116697085,
                  "lng" : -49.2629048197085
               },
               "southwest" : {
                  "lat" : -25.3912096302915,
                  "lng" : -49.26560278029149
               }
            }
         },
         "place_id" : "ChIJUyu-5L_m3JQRmfJfmvBGQdE",
         "types" : [ "premise" ]
      },
      {
         "address_components" : [
            {
               "long_name" : "115",
               "short_name" : "115",
               "types" : [ "street_number" ]
            },
            {
               "long_name" : "Rua Wagia Kassab Khury",
               "short_name" : "R. Wagia Kassab Khury",
               "types" : [ "route" ]
            },
            {
               "long_name" : "São Lourenço",
               "short_name" : "São Lourenço",
               "types" : [ "political", "sublocality", "sublocality_level_1" ]
            },
            {
               "long_name" : "Curitiba",
               "short_name" : "Curitiba",
               "types" : [ "administrative_area_level_2", "political" ]
            },
            {
               "long_name" : "Paraná",
               "short_name" : "PR",
               "types" : [ "administrative_area_level_1", "political" ]
            },
            {
               "long_name" : "Brazil",
               "short_name" : "BR",
               "types" : [ "country", "political" ]
            },
            {
               "long_name" : "82210-100",
               "short_name" : "82210-100",
               "types" : [ "postal_code" ]
            }
         ],
         "formatted_address" : "R. Wagia Kassab Khury, 115 - São Lourenço, Curitiba - PR, 82210-100, Brazil",
         "geometry" : {
            "location" : {
               "lat" : -25.389959,
               "lng" : -49.264774
            },
            "location_type" : "ROOFTOP",
            "viewport" : {
               "northeast" : {
                  "lat" : -25.3886100197085,
                  "lng" : -49.2634250197085
               },
               "southwest" : {
                  "lat" : -25.3913079802915,
                  "lng" : -49.2661229802915
               }
            }
         },
         "place_id" : "ChIJkV8d7r_m3JQRftei2-iu_Ks",
         "plus_code" : {
            "compound_code" : "JP6P+23 Curitiba, State of Paraná, Brazil",
            "global_code" : "586GJP6P+23"
         },
         "types" : [ "establishment", "point_of_interest" ]
      },
      {
         "address_components" : [
            {
               "long_name" : "23",
               "short_name" : "23",
               "types" : [ "street_number" ]
            },
            {
               "long_name" : "Rua Wagia Kassab Khury",
               "short_name" : "R. Wagia Kassab Khury",
               "types" : [ "route" ]
            },
            {
               "long_name" : "São Lourenço",
               "short_name" : "São Lourenço",
               "types" : [ "political", "sublocality", "sublocality_level_1" ]
            },
            {
               "long_name" : "Curitiba",
               "short_name" : "Curitiba",
               "types" : [ "administrative_area_level_2", "political" ]
            },
            {
               "long_name" : "Paraná",
               "short_name" : "PR",
               "types" : [ "administrative_area_level_1", "political" ]
            },
            {
               "long_name" : "Brazil",
               "short_name" : "BR",
               "types" : [ "country", "political" ]
            },
            {
               "long_name" : "82210-100",
               "short_name" : "82210-100",
               "types" : [ "postal_code" ]
            }
         ],
         "formatted_address" : "R. Wagia Kassab Khury, 23 - São Lourenço, Curitiba - PR, 82210-100, Brazil",
         "geometry" : {
            "location" : {
               "lat" : -25.3901342,
               "lng" : -49.2641854
            },
            "location_type" : "RANGE_INTERPOLATED",
            "viewport" : {
               "northeast" : {
                  "lat" : -25.3887852197085,
                  "lng" : -49.2628364197085
               },
               "southwest" : {
                  "lat" : -25.3914831802915,
                  "lng" : -49.26553438029149
               }
            }
         },
         "place_id" : "EkFSLiBXYWdpYSBLYXNzYWIgS2h1cnksIDIzIC0gU8OjbyBMb3VyZW7Dp28sIEN1cml0aWJhIC0gUFIsIEJyYXppbCIaEhgKFAoSCW88L-S_5tyUEVG4JkuGWmB-EBc",
         "types" : [ "street_address" ]
      },
      {
         "address_components" : [
            {
               "long_name" : "2-76",
               "short_name" : "2-76",
               "types" : [ "street_number" ]
            },
            {
               "long_name" : "Rua Wagia Kassab Khury",
               "short_name" : "R. Wagia Kassab Khury",
               "types" : [ "route" ]
            },
            {
               "long_name" : "São Lourenço",
               "short_name" : "São Lourenço",
               "types" : [ "political", "sublocality", "sublocality_level_1" ]
            },
            {
               "long_name" : "Curitiba",
               "short_name" : "Curitiba",
               "types" : [ "administrative_area_level_2", "political" ]
            },
            {
               "long_name" : "Paraná",
               "short_name" : "PR",
               "types" : [ "administrative_area_level_1", "political" ]
            },
            {
               "long_name" : "Brazil",
               "short_name" : "BR",
               "types" : [ "country", "political" ]
            },
            {
               "long_name" : "82210-100",
               "short_name" : "82210-100",
               "types" : [ "postal_code" ]
            }
         ],
         "formatted_address" : "R. Wagia Kassab Khury, 2-76 - São Lourenço, Curitiba - PR, 82210-100, Brazil",
         "geometry" : {
            "bounds" : {
               "northeast" : {
                  "lat" : -25.3900624,
                  "lng" : -49.2640751
               },
               "southwest" : {
                  "lat" : -25.3901758,
                  "lng" : -49.26437600000001
               }
            },
            "location" : {
               "lat" : -25.3901191,
               "lng" : -49.2642256
            },
            "location_type" : "GEOMETRIC_CENTER",
            "viewport" : {
               "northeast" : {
                  "lat" : -25.3887701197085,
                  "lng" : -49.2628765697085
               },
               "southwest" : {
                  "lat" : -25.3914680802915,
                  "lng" : -49.2655745302915
               }
            }
         },
         "place_id" : "ChIJbzwv5L_m3JQRULgmS4ZaYH4",
         "types" : [ "route" ]
      },
      {
         "address_components" : [
            {
               "long_name" : "82210-100",
               "short_name" : "82210-100",
               "types" : [ "postal_code" ]
            },
            {
               "long_name" : "São Lourenço",
               "short_name" : "São Lourenço",
               "types" : [ "political", "sublocality", "sublocality_level_1" ]
            },
            {
               "long_name" : "Curitiba",
               "short_name" : "Curitiba",
               "types" : [ "administrative_area_level_2", "political" ]
            },
            {
               "long_name" : "State of Paraná",
               "short_name" : "PR",
               "types" : [ "administrative_area_level_1", "political" ]
            },
            {
               "long_name" : "Brazil",
               "short_name" : "BR",
               "types" : [ "country", "political" ]
            }
         ],
         "formatted_address" : "São Lourenço, Curitiba - State of Paraná, 82210-100, Brazil",
         "geometry" : {
            "bounds" : {
               "northeast" : {
                  "lat" : -25.3892128,
                  "lng" : -49.2638736
               },
               "southwest" : {
                  "lat" : -25.3903943,
                  "lng" : -49.2665772
               }
            },
            "location" : {
               "lat" : -25.3896733,
               "lng" : -49.2652932
            },
            "location_type" : "APPROXIMATE",
            "viewport" : {
               "northeast" : {
                  "lat" : -25.3884545697085,
                  "lng" : -49.2638736
               },
               "southwest" : {
                  "lat" : -25.3911525302915,
                  "lng" : -49.2665772
               }
            }
         },
         "place_id" : "ChIJBeUE8r_m3JQRKMzpnGUw5AM",
         "types" : [ "postal_code" ]
      },
      {
         "address_components" : [
            {
               "long_name" : "82200",
               "short_name" : "82200",
               "types" : [ "postal_code", "postal_code_prefix" ]
            },
            {
               "long_name" : "Curitiba",
               "short_name" : "Curitiba",
               "types" : [ "administrative_area_level_2", "political" ]
            },
            {
               "long_name" : "State of Paraná",
               "short_name" : "PR",
               "types" : [ "administrative_area_level_1", "political" ]
            },
            {
               "long_name" : "Brazil",
               "short_name" : "BR",
               "types" : [ "country", "political" ]
            }
         ],
         "formatted_address" : "Curitiba - State of Paraná, 82200, Brazil",
         "geometry" : {
            "bounds" : {
               "northeast" : {
                  "lat" : -25.3887457,
                  "lng" : -49.25792020000001
               },
               "southwest" : {
                  "lat" : -25.4020097,
                  "lng" : -49.2773835
               }
            },
            "location" : {
               "lat" : -25.3972295,
               "lng" : -49.2664018
            },
            "location_type" : "APPROXIMATE",
            "viewport" : {
               "northeast" : {
                  "lat" : -25.3887457,
                  "lng" : -49.25792020000001
               },
               "southwest" : {
                  "lat" : -25.4020097,
                  "lng" : -49.2773835
               }
            }
         },
         "place_id" : "ChIJO8bWIbzm3JQRJ08D1e19NFA",
         "types" : [ "postal_code", "postal_code_prefix" ]
      },
      {
         "address_components" : [
            {
               "long_name" : "São Lourenço",
               "short_name" : "São Lourenço",
               "types" : [ "political", "sublocality", "sublocality_level_1" ]
            },
            {
               "long_name" : "Curitiba",
               "short_name" : "Curitiba",
               "types" : [ "administrative_area_level_2", "political" ]
            },
            {
               "long_name" : "State of Paraná",
               "short_name" : "PR",
               "types" : [ "administrative_area_level_1", "political" ]
            },
            {
               "long_name" : "Brazil",
               "short_name" : "BR",
               "types" : [ "country", "political" ]
            }
         ],
         "formatted_address" : "São Lourenço, Curitiba - State of Paraná, Brazil",
         "geometry" : {
            "bounds" : {
               "northeast" : {
                  "lat" : -25.3763476,
                  "lng" : -49.260504
               },
               "southwest" : {
                  "lat" : -25.4036632,
                  "lng" : -49.2753201
               }
            },
            "location" : {
               "lat" : -25.3913782,
               "lng" : -49.26743010000001
            },
            "location_type" : "APPROXIMATE",
            "viewport" : {
               "northeast" : {
                  "lat" : -25.3763476,
                  "lng" : -49.260504
               },
               "southwest" : {
                  "lat" : -25.4036632,
                  "lng" : -49.2753201
               }
            }
         },
         "place_id" : "ChIJ0cPRF8fm3JQRYChbA2w7du0",
         "types" : [ "political", "sublocality", "sublocality_level_1" ]
      },
      {
         "address_components" : [
            {
               "long_name" : "Boa Vista",
               "short_name" : "Boa Vista",
               "types" : [ "administrative_area_level_4", "political" ]
            },
            {
               "long_name" : "Curitiba",
               "short_name" : "Curitiba",
               "types" : [ "administrative_area_level_2", "political" ]
            },
            {
               "long_name" : "State of Paraná",
               "short_name" : "PR",
               "types" : [ "administrative_area_level_1", "political" ]
            },
            {
               "long_name" : "Brazil",
               "short_name" : "BR",
               "types" : [ "country", "political" ]
            }
         ],
         "formatted_address" : "Boa Vista, Curitiba - State of Paraná, Brazil",
         "geometry" : {
            "bounds" : {
               "northeast" : {
                  "lat" : -25.346995,
                  "lng" : -49.1914303
               },
               "southwest" : {
                  "lat" : -25.4313697,
                  "lng" : -49.2815916
               }
            },
            "location" : {
               "lat" : -25.3886823,
               "lng" : -49.2334685
            },
            "location_type" : "APPROXIMATE",
            "viewport" : {
               "northeast" : {
                  "lat" : -25.346995,
                  "lng" : -49.1914303
               },
               "southwest" : {
                  "lat" : -25.4313697,
                  "lng" : -49.2815916
               }
            }
         },
         "place_id" : "ChIJ4yXhiYjm3JQRib7FMdA38u0",
         "types" : [ "administrative_area_level_4", "political" ]
      },
      {
         "address_components" : [
            {
               "long_name" : "Curitiba",
               "short_name" : "Curitiba",
               "types" : [ "locality", "political" ]
            },
            {
               "long_name" : "Curitiba",
               "short_name" : "Curitiba",
               "types" : [ "administrative_area_level_2", "political" ]
            },
            {
               "long_name" : "State of Paraná",
               "short_name" : "PR",
               "types" : [ "administrative_area_level_1", "political" ]
            },
            {
               "long_name" : "Brazil",
               "short_name" : "BR",
               "types" : [ "country", "political" ]
            }
         ],
         "formatted_address" : "Curitiba, State of Paraná, Brazil",
         "geometry" : {
            "bounds" : {
               "northeast" : {
                  "lat" : -25.346995,
                  "lng" : -49.1897635
               },
               "southwest" : {
                  "lat" : -25.6432382,
                  "lng" : -49.38983289999999
               }
            },
            "location" : {
               "lat" : -25.4289541,
               "lng" : -49.267137
            },
            "location_type" : "APPROXIMATE",
            "viewport" : {
               "northeast" : {
                  "lat" : -25.346995,
                  "lng" : -49.1897635
               },
               "southwest" : {
                  "lat" : -25.6432382,
                  "lng" : -49.38983289999999
               }
            }
         },
         "place_id" : "ChIJ3bPNUVPj3JQRCejLuqVrL20",
         "types" : [ "locality", "political" ]
      },
      {
         "address_components" : [
            {
               "long_name" : "Curitiba",
               "short_name" : "Curitiba",
               "types" : [ "administrative_area_level_2", "political" ]
            },
            {
               "long_name" : "State of Paraná",
               "short_name" : "PR",
               "types" : [ "administrative_area_level_1", "political" ]
            },
            {
               "long_name" : "Brazil",
               "short_name" : "BR",
               "types" : [ "country", "political" ]
            }
         ],
         "formatted_address" : "Curitiba - State of Paraná, Brazil",
         "geometry" : {
            "bounds" : {
               "northeast" : {
                  "lat" : -25.346736,
                  "lng" : -49.18522489999999
               },
               "southwest" : {
                  "lat" : -25.6453862,
                  "lng" : -49.38933859999999
               }
            },
            "location" : {
               "lat" : -25.4808762,
               "lng" : -49.3044253
            },
            "location_type" : "APPROXIMATE",
            "viewport" : {
               "northeast" : {
                  "lat" : -25.346736,
                  "lng" : -49.18522489999999
               },
               "southwest" : {
                  "lat" : -25.6453862,
                  "lng" : -49.38933859999999
               }
            }
         },
         "place_id" : "ChIJ8Q8J_PXj3JQRR7crCbCDejw",
         "types" : [ "administrative_area_level_2", "political" ]
      },
      {
         "address_components" : [
            {
               "long_name" : "State of Paraná",
               "short_name" : "PR",
               "types" : [ "administrative_area_level_1", "political" ]
            },
            {
               "long_name" : "Brazil",
               "short_name" : "BR",
               "types" : [ "country", "political" ]
            }
         ],
         "formatted_address" : "State of Paraná, Brazil",
         "geometry" : {
            "bounds" : {
               "northeast" : {
                  "lat" : -22.5166644,
                  "lng" : -48.0235303
               },
               "southwest" : {
                  "lat" : -26.7172983,
                  "lng" : -54.6192979
               }
            },
            "location" : {
               "lat" : -25.2520888,
               "lng" : -52.0215415
            },
            "location_type" : "APPROXIMATE",
            "viewport" : {
               "northeast" : {
                  "lat" : -22.5166644,
                  "lng" : -48.0235303
               },
               "southwest" : {
                  "lat" : -26.7172983,
                  "lng" : -54.6192979
               }
            }
         },
         "place_id" : "ChIJnWK4MJQL25QRYfDOY1D9k-g",
         "types" : [ "administrative_area_level_1", "political" ]
      },
      {
         "address_components" : [
            {
               "long_name" : "Brazil",
               "short_name" : "BR",
               "types" : [ "country", "political" ]
            }
         ],
         "formatted_address" : "Brazil",
         "geometry" : {
            "bounds" : {
               "northeast" : {
                  "lat" : 5.2717863,
                  "lng" : -28.650543
               },
               "southwest" : {
                  "lat" : -34.0891,
                  "lng" : -73.9828169
               }
            },
            "location" : {
               "lat" : -14.235004,
               "lng" : -51.92528
            },
            "location_type" : "APPROXIMATE",
            "viewport" : {
               "northeast" : {
                  "lat" : 5.2717863,
                  "lng" : -28.650543
               },
               "southwest" : {
                  "lat" : -34.0891,
                  "lng" : -73.9828169
               }
            }
         },
         "place_id" : "ChIJzyjM68dZnAARYz4p8gYVWik",
         "types" : [ "country", "political" ]
      }
   ],
   "status" : "OK"
}
