{
   "plus_code" : {
      "compound_code" : "JP69+VR Curitiba, State of Paraná, Brazil",
      "global_code" : "586GJP69+VR"
   },
   "results" : [
      {
         "address_components" : [
            {
               "long_name" : "245",
               "short_name" : "245",
               "types" : [ "street_number" ]
            },
            {
               "long_name" : "Rua Roberto Gava",
               "short_name" : "R. Roberto Gava",
               "types" : [ "route" ]
            },
            {
               "long_name" : "Pilarzinho",
               "short_name" : "Pilarzinho",
               "types" : [ "political", "sublocality", "sublocality_level_1" ]
            },
            {
               "long_name" : "Curitiba",
               "short_name" : "Curitiba",
               "types" : [ "administrative_area_level_2", "political" ]
            },
            {
               "long_name" : "Paraná",
               "short_name" : "PR",
               "types" : [ "administrative_area_level_1", "political" ]
            },
            {
               "long_name" : "Brazil",
               "short_name" : "BR",
               "types" : [ "country", "political" ]
            },
            {
               "long_name" : "82120",
               "short_name" : "82120",
               "types" : [ "postal_code", "postal_code_prefix" ]
            }
         ],
         "formatted_address" : "R. Roberto Gava, 245 - Pilarzinho, Curitiba - PR, 82120, Brazil",
         "geometry" : {
            "bounds" : {
               "northeast" : {
                  "lat" : -25.38747,
                  "lng" : -49.28040780000001
               },
               "southwest" : {
                  "lat" : -25.3876121,
                  "lng" : -49.2805773
               }
            },
            "location" : {
               "lat" : -25.3875318,
               "lng" : -49.2804795
            },
            "location_type" : "ROOFTOP",
            "viewport" : {
               "northeast" : {
                  "lat" : -25.3861920697085,
                  "lng" : -49.2791435697085
               },
               "southwest" : {
                  "lat" : -25.3888900302915,
                  "lng" : -49.2818415302915
               }
            }
         },
         "place_id" : "ChIJX5osSszm3JQRwpZZ4e88hKw",
         "types" : [ "premise" ]
      },
      {
         "address_components" : [
            {
               "long_name" : "1150",
               "short_name" : "1150",
               "types" : [ "street_number" ]
            },
            {
               "long_name" : "Rua Manife Tacla",
               "short_name" : "R. Manife Tacla",
               "types" : [ "route" ]
            },
            {
               "long_name" : "Pilarzinho",
               "short_name" : "Pilarzinho",
               "types" : [ "political", "sublocality", "sublocality_level_1" ]
            },
            {
               "long_name" : "Curitiba",
               "short_name" : "Curitiba",
               "types" : [ "administrative_area_level_2", "political" ]
            },
            {
               "long_name" : "Paraná",
               "short_name" : "PR",
               "types" : [ "administrative_area_level_1", "political" ]
            },
            {
               "long_name" : "Brazil",
               "short_name" : "BR",
               "types" : [ "country", "political" ]
            },
            {
               "long_name" : "82120-310",
               "short_name" : "82120-310",
               "types" : [ "postal_code" ]
            }
         ],
         "formatted_address" : "R. Manife Tacla, 1150 - Pilarzinho, Curitiba - PR, 82120-310, Brazil",
         "geometry" : {
            "location" : {
               "lat" : -25.3879285,
               "lng" : -49.2806615
            },
            "location_type" : "ROOFTOP",
            "viewport" : {
               "northeast" : {
                  "lat" : -25.38657951970849,
                  "lng" : -49.2793125197085
               },
               "southwest" : {
                  "lat" : -25.3892774802915,
                  "lng" : -49.2820104802915
               }
            }
         },
         "place_id" : "ChIJyTb-Rczm3JQRS1cT2oKGHq8",
         "plus_code" : {
            "compound_code" : "JP69+RP Curitiba, State of Paraná, Brazil",
            "global_code" : "586GJP69+RP"
         },
         "types" : [ "street_address" ]
      },
      {
         "address_components" : [
            {
               "long_name" : "305",
               "short_name" : "305",
               "types" : [ "street_number" ]
            },
            {
               "long_name" : "Rua Roberto Gava",
               "short_name" : "R. Roberto Gava",
               "types" : [ "route" ]
            },
            {
               "long_name" : "Pilarzinho",
               "short_name" : "Pilarzinho",
               "types" : [ "political", "sublocality", "sublocality_level_1" ]
            },
            {
               "long_name" : "Curitiba",
               "short_name" : "Curitiba",
               "types" : [ "administrative_area_level_2", "political" ]
            },
            {
               "long_name" : "Paraná",
               "short_name" : "PR",
               "types" : [ "administrative_area_level_1", "political" ]
            },
            {
               "long_name" : "Brazil",
               "short_name" : "BR",
               "types" : [ "country", "political" ]
            },
            {
               "long_name" : "82120-500",
               "short_name" : "82120-500",
               "types" : [ "postal_code" ]
            }
         ],
         "formatted_address" : "R. Roberto Gava, 305 - Pilarzinho, Curitiba - PR, 82120-500, Brazil",
         "geometry" : {
            "location" : {
               "lat" : -25.3877258,
               "lng" : -49.2808724
            },
            "location_type" : "ROOFTOP",
            "viewport" : {
               "northeast" : {
                  "lat" : -25.3863768197085,
                  "lng" : -49.2795234197085
               },
               "southwest" : {
                  "lat" : -25.3890747802915,
                  "lng" : -49.2822213802915
               }
            }
         },
         "place_id" : "ChIJS2xuTszm3JQRSRzN1Q3XKBI",
         "plus_code" : {
            "compound_code" : "JP69+WM Pilarzinho, Curitiba - State of Paraná, Brazil",
            "global_code" : "586GJP69+WM"
         },
         "types" : [ "establishment", "health", "point_of_interest" ]
      },
      {
         "address_components" : [
            {
               "long_name" : "319",
               "short_name" : "319",
               "types" : [ "street_number" ]
            },
            {
               "long_name" : "Rua Arsezio Antônio Scandelari",
               "short_name" : "R. Arsezio Antônio Scandelari",
               "types" : [ "route" ]
            },
            {
               "long_name" : "Pilarzinho",
               "short_name" : "Pilarzinho",
               "types" : [ "political", "sublocality", "sublocality_level_1" ]
            },
            {
               "long_name" : "Curitiba",
               "short_name" : "Curitiba",
               "types" : [ "administrative_area_level_2", "political" ]
            },
            {
               "long_name" : "Paraná",
               "short_name" : "PR",
               "types" : [ "administrative_area_level_1", "political" ]
            },
            {
               "long_name" : "Brazil",
               "short_name" : "BR",
               "types" : [ "country", "political" ]
            },
            {
               "long_name" : "82120-470",
               "short_name" : "82120-470",
               "types" : [ "postal_code" ]
            }
         ],
         "formatted_address" : "R. Arsezio Antônio Scandelari, 319 - Pilarzinho, Curitiba - PR, 82120-470, Brazil",
         "geometry" : {
            "location" : {
               "lat" : -25.3880807,
               "lng" : -49.2801781
            },
            "location_type" : "RANGE_INTERPOLATED",
            "viewport" : {
               "northeast" : {
                  "lat" : -25.3867317197085,
                  "lng" : -49.2788291197085
               },
               "southwest" : {
                  "lat" : -25.3894296802915,
                  "lng" : -49.2815270802915
               }
            }
         },
         "place_id" : "ElJSLiBBcnNlemlvIEFudMO0bmlvIFNjYW5kZWxhcmksIDMxOSAtIFBpbGFyemluaG8sIEN1cml0aWJhIC0gUFIsIDgyMTIwLTQ3MCwgQnJhemlsIhsSGQoUChIJAe1fP8zm3JQRZMky39_r4m0QvwI",
         "types" : [ "street_address" ]
      },
      {
         "address_components" : [
            {
               "long_name" : "353-255",
               "short_name" : "353-255",
               "types" : [ "street_number" ]
            },
            {
               "long_name" : "Rua Arsezio Antônio Scandelari",
               "short_name" : "R. Arsezio Antônio Scandelari",
               "types" : [ "route" ]
            },
            {
               "long_name" : "Pilarzinho",
               "short_name" : "Pilarzinho",
               "types" : [ "political", "sublocality", "sublocality_level_1" ]
            },
            {
               "long_name" : "Curitiba",
               "short_name" : "Curitiba",
               "types" : [ "administrative_area_level_2", "political" ]
            },
            {
               "long_name" : "Paraná",
               "short_name" : "PR",
               "types" : [ "administrative_area_level_1", "political" ]
            },
            {
               "long_name" : "Brazil",
               "short_name" : "BR",
               "types" : [ "country", "political" ]
            },
            {
               "long_name" : "82120-470",
               "short_name" : "82120-470",
               "types" : [ "postal_code" ]
            }
         ],
         "formatted_address" : "R. Arsezio Antônio Scandelari, 353-255 - Pilarzinho, Curitiba - PR, 82120-470, Brazil",
         "geometry" : {
            "bounds" : {
               "northeast" : {
                  "lat" : -25.387936,
                  "lng" : -49.2798823
               },
               "southwest" : {
                  "lat" : -25.3883536,
                  "lng" : -49.2807345
               }
            },
            "location" : {
               "lat" : -25.3881445,
               "lng" : -49.2803086
            },
            "location_type" : "GEOMETRIC_CENTER",
            "viewport" : {
               "northeast" : {
                  "lat" : -25.3867958197085,
                  "lng" : -49.2789594197085
               },
               "southwest" : {
                  "lat" : -25.38949378029151,
                  "lng" : -49.2816573802915
               }
            }
         },
         "place_id" : "ChIJAe1fP8zm3JQRZMky39_r4m0",
         "types" : [ "route" ]
      },
      {
         "address_components" : [
            {
               "long_name" : "82120-470",
               "short_name" : "82120-470",
               "types" : [ "postal_code" ]
            },
            {
               "long_name" : "Pilarzinho",
               "short_name" : "Pilarzinho",
               "types" : [ "political", "sublocality", "sublocality_level_1" ]
            },
            {
               "long_name" : "Curitiba",
               "short_name" : "Curitiba",
               "types" : [ "administrative_area_level_2", "political" ]
            },
            {
               "long_name" : "State of Paraná",
               "short_name" : "PR",
               "types" : [ "administrative_area_level_1", "political" ]
            },
            {
               "long_name" : "Brazil",
               "short_name" : "BR",
               "types" : [ "country", "political" ]
            }
         ],
         "formatted_address" : "Pilarzinho, Curitiba - State of Paraná, 82120-470, Brazil",
         "geometry" : {
            "bounds" : {
               "northeast" : {
                  "lat" : -25.3875398,
                  "lng" : -49.2786907
               },
               "southwest" : {
                  "lat" : -25.3889562,
                  "lng" : -49.2830802
               }
            },
            "location" : {
               "lat" : -25.388222,
               "lng" : -49.2806577
            },
            "location_type" : "APPROXIMATE",
            "viewport" : {
               "northeast" : {
                  "lat" : -25.3868990197085,
                  "lng" : -49.2786907
               },
               "southwest" : {
                  "lat" : -25.3895969802915,
                  "lng" : -49.2830802
               }
            }
         },
         "place_id" : "ChIJs70ZIszm3JQRE_7ak3poOl0",
         "types" : [ "postal_code" ]
      },
      {
         "address_components" : [
            {
               "long_name" : "82120",
               "short_name" : "82120",
               "types" : [ "postal_code", "postal_code_prefix" ]
            },
            {
               "long_name" : "Pilarzinho",
               "short_name" : "Pilarzinho",
               "types" : [ "political", "sublocality", "sublocality_level_1" ]
            },
            {
               "long_name" : "Curitiba",
               "short_name" : "Curitiba",
               "types" : [ "administrative_area_level_2", "political" ]
            },
            {
               "long_name" : "State of Paraná",
               "short_name" : "PR",
               "types" : [ "administrative_area_level_1", "political" ]
            },
            {
               "long_name" : "Brazil",
               "short_name" : "BR",
               "types" : [ "country", "political" ]
            }
         ],
         "formatted_address" : "Pilarzinho, Curitiba - State of Paraná, 82120, Brazil",
         "geometry" : {
            "bounds" : {
               "northeast" : {
                  "lat" : -25.3793311,
                  "lng" : -49.27022909999999
               },
               "southwest" : {
                  "lat" : -25.3981588,
                  "lng" : -49.28801050000001
               }
            },
            "location" : {
               "lat" : -25.3876214,
               "lng" : -49.2816082
            },
            "location_type" : "APPROXIMATE",
            "viewport" : {
               "northeast" : {
                  "lat" : -25.3793311,
                  "lng" : -49.27022909999999
               },
               "southwest" : {
                  "lat" : -25.3981588,
                  "lng" : -49.28801050000001
               }
            }
         },
         "place_id" : "ChIJJcSPAszm3JQRAwB9Y91B3xw",
         "types" : [ "postal_code", "postal_code_prefix" ]
      },
      {
         "address_components" : [
            {
               "long_name" : "Pilarzinho",
               "short_name" : "Pilarzinho",
               "types" : [ "political", "sublocality", "sublocality_level_1" ]
            },
            {
               "long_name" : "Curitiba",
               "short_name" : "Curitiba",
               "types" : [ "administrative_area_level_2", "political" ]
            },
            {
               "long_name" : "State of Paraná",
               "short_name" : "PR",
               "types" : [ "administrative_area_level_1", "political" ]
            },
            {
               "long_name" : "Brazil",
               "short_name" : "BR",
               "types" : [ "country", "political" ]
            }
         ],
         "formatted_address" : "Pilarzinho, Curitiba - State of Paraná, Brazil",
         "geometry" : {
            "bounds" : {
               "northeast" : {
                  "lat" : -25.3750081,
                  "lng" : -49.2711122
               },
               "southwest" : {
                  "lat" : -25.4041924,
                  "lng" : -49.3052765
               }
            },
            "location" : {
               "lat" : -25.39629,
               "lng" : -49.2875992
            },
            "location_type" : "APPROXIMATE",
            "viewport" : {
               "northeast" : {
                  "lat" : -25.3750081,
                  "lng" : -49.2711122
               },
               "southwest" : {
                  "lat" : -25.4041924,
                  "lng" : -49.3052765
               }
            }
         },
         "place_id" : "ChIJWQuM6zPh3JQR1_AE4OwV5jU",
         "types" : [ "political", "sublocality", "sublocality_level_1" ]
      },
      {
         "address_components" : [
            {
               "long_name" : "Curitiba",
               "short_name" : "Curitiba",
               "types" : [ "locality", "political" ]
            },
            {
               "long_name" : "Curitiba",
               "short_name" : "Curitiba",
               "types" : [ "administrative_area_level_2", "political" ]
            },
            {
               "long_name" : "State of Paraná",
               "short_name" : "PR",
               "types" : [ "administrative_area_level_1", "political" ]
            },
            {
               "long_name" : "Brazil",
               "short_name" : "BR",
               "types" : [ "country", "political" ]
            }
         ],
         "formatted_address" : "Curitiba, State of Paraná, Brazil",
         "geometry" : {
            "bounds" : {
               "northeast" : {
                  "lat" : -25.346995,
                  "lng" : -49.1897635
               },
               "southwest" : {
                  "lat" : -25.6432382,
                  "lng" : -49.38983289999999
               }
            },
            "location" : {
               "lat" : -25.4289541,
               "lng" : -49.267137
            },
            "location_type" : "APPROXIMATE",
            "viewport" : {
               "northeast" : {
                  "lat" : -25.346995,
                  "lng" : -49.1897635
               },
               "southwest" : {
                  "lat" : -25.6432382,
                  "lng" : -49.38983289999999
               }
            }
         },
         "place_id" : "ChIJ3bPNUVPj3JQRCejLuqVrL20",
         "types" : [ "locality", "political" ]
      },
      {
         "address_components" : [
            {
               "long_name" : "Curitiba",
               "short_name" : "Curitiba",
               "types" : [ "administrative_area_level_2", "political" ]
            },
            {
               "long_name" : "State of Paraná",
               "short_name" : "PR",
               "types" : [ "administrative_area_level_1", "political" ]
            },
            {
               "long_name" : "Brazil",
               "short_name" : "BR",
               "types" : [ "country", "political" ]
            }
         ],
         "formatted_address" : "Curitiba - State of Paraná, Brazil",
         "geometry" : {
            "bounds" : {
               "northeast" : {
                  "lat" : -25.346736,
                  "lng" : -49.18522489999999
               },
               "southwest" : {
                  "lat" : -25.6453862,
                  "lng" : -49.38933859999999
               }
            },
            "location" : {
               "lat" : -25.4808762,
               "lng" : -49.3044253
            },
            "location_type" : "APPROXIMATE",
            "viewport" : {
               "northeast" : {
                  "lat" : -25.346736,
                  "lng" : -49.18522489999999
               },
               "southwest" : {
                  "lat" : -25.6453862,
                  "lng" : -49.38933859999999
               }
            }
         },
         "place_id" : "ChIJ8Q8J_PXj3JQRR7crCbCDejw",
         "types" : [ "administrative_area_level_2", "political" ]
      },
      {
         "address_components" : [
            {
               "long_name" : "State of Paraná",
               "short_name" : "PR",
               "types" : [ "administrative_area_level_1", "political" ]
            },
            {
               "long_name" : "Brazil",
               "short_name" : "BR",
               "types" : [ "country", "political" ]
            }
         ],
         "formatted_address" : "State of Paraná, Brazil",
         "geometry" : {
            "bounds" : {
               "northeast" : {
                  "lat" : -22.5166644,
                  "lng" : -48.0235303
               },
               "southwest" : {
                  "lat" : -26.7172983,
                  "lng" : -54.6192979
               }
            },
            "location" : {
               "lat" : -25.2520888,
               "lng" : -52.0215415
            },
            "location_type" : "APPROXIMATE",
            "viewport" : {
               "northeast" : {
                  "lat" : -22.5166644,
                  "lng" : -48.0235303
               },
               "southwest" : {
                  "lat" : -26.7172983,
                  "lng" : -54.6192979
               }
            }
         },
         "place_id" : "ChIJnWK4MJQL25QRYfDOY1D9k-g",
         "types" : [ "administrative_area_level_1", "political" ]
      },
      {
         "address_components" : [
            {
               "long_name" : "Brazil",
               "short_name" : "BR",
               "types" : [ "country", "political" ]
            }
         ],
         "formatted_address" : "Brazil",
         "geometry" : {
            "bounds" : {
               "northeast" : {
                  "lat" : 5.2717863,
                  "lng" : -28.650543
               },
               "southwest" : {
                  "lat" : -34.0891,
                  "lng" : -73.9828169
               }
            },
            "location" : {
               "lat" : -14.235004,
               "lng" : -51.92528
            },
            "location_type" : "APPROXIMATE",
            "viewport" : {
               "northeast" : {
                  "lat" : 5.2717863,
                  "lng" : -28.650543
               },
               "southwest" : {
                  "lat" : -34.0891,
                  "lng" : -73.9828169
               }
            }
         },
         "place_id" : "ChIJzyjM68dZnAARYz4p8gYVWik",
         "types" : [ "country", "political" ]
      }
   ],
   "status" : "OK"
}
