{
   "plus_code" : {
      "compound_code" : "JP3G+W8 Curitiba, State of Paraná, Brazil",
      "global_code" : "586GJP3G+W8"
   },
   "results" : [
      {
         "address_components" : [
            {
               "long_name" : "105",
               "short_name" : "105",
               "types" : [ "street_number" ]
            },
            {
               "long_name" : "Rua Cipriano Antônio Rigotto",
               "short_name" : "Rua Cipriano Antônio Rigotto",
               "types" : [ "route" ]
            },
            {
               "long_name" : "Pilarzinho",
               "short_name" : "Pilarzinho",
               "types" : [ "political", "sublocality", "sublocality_level_1" ]
            },
            {
               "long_name" : "Curitiba",
               "short_name" : "Curitiba",
               "types" : [ "administrative_area_level_2", "political" ]
            },
            {
               "long_name" : "Paraná",
               "short_name" : "PR",
               "types" : [ "administrative_area_level_1", "political" ]
            },
            {
               "long_name" : "Brazil",
               "short_name" : "BR",
               "types" : [ "country", "political" ]
            },
            {
               "long_name" : "82120-210",
               "short_name" : "82120-210",
               "types" : [ "postal_code" ]
            }
         ],
         "formatted_address" : "Rua Cipriano Antônio Rigotto, 105 - Pilarzinho, Curitiba - PR, 82120-210, Brazil",
         "geometry" : {
            "bounds" : {
               "northeast" : {
                  "lat" : -25.3951109,
                  "lng" : -49.2741404
               },
               "southwest" : {
                  "lat" : -25.3952785,
                  "lng" : -49.2743146
               }
            },
            "location" : {
               "lat" : -25.3951938,
               "lng" : -49.2742223
            },
            "location_type" : "ROOFTOP",
            "viewport" : {
               "northeast" : {
                  "lat" : -25.3938457197085,
                  "lng" : -49.2728785197085
               },
               "southwest" : {
                  "lat" : -25.3965436802915,
                  "lng" : -49.2755764802915
               }
            }
         },
         "place_id" : "ChIJwyGUfrfm3JQRBBSxdrtm9gI",
         "types" : [ "premise" ]
      },
      {
         "address_components" : [
            {
               "long_name" : "103",
               "short_name" : "103",
               "types" : [ "street_number" ]
            },
            {
               "long_name" : "Praca Florinda Gusso Bozza",
               "short_name" : "Praca Florinda Gusso Bozza",
               "types" : [ "route" ]
            },
            {
               "long_name" : "Pilarzinho",
               "short_name" : "Pilarzinho",
               "types" : [ "political", "sublocality", "sublocality_level_1" ]
            },
            {
               "long_name" : "Curitiba",
               "short_name" : "Curitiba",
               "types" : [ "administrative_area_level_2", "political" ]
            },
            {
               "long_name" : "Paraná",
               "short_name" : "PR",
               "types" : [ "administrative_area_level_1", "political" ]
            },
            {
               "long_name" : "Brazil",
               "short_name" : "BR",
               "types" : [ "country", "political" ]
            },
            {
               "long_name" : "82120-215",
               "short_name" : "82120-215",
               "types" : [ "postal_code" ]
            }
         ],
         "formatted_address" : "Praca Florinda Gusso Bozza, 103 - Pilarzinho, Curitiba - PR, 82120-215, Brazil",
         "geometry" : {
            "location" : {
               "lat" : -25.395112,
               "lng" : -49.274113
            },
            "location_type" : "ROOFTOP",
            "viewport" : {
               "northeast" : {
                  "lat" : -25.3937630197085,
                  "lng" : -49.2727640197085
               },
               "southwest" : {
                  "lat" : -25.3964609802915,
                  "lng" : -49.2754619802915
               }
            }
         },
         "place_id" : "ChIJJ1hEfrfm3JQRffIZyK4rn20",
         "plus_code" : {
            "compound_code" : "JP3G+X9 Curitiba, State of Paraná, Brazil",
            "global_code" : "586GJP3G+X9"
         },
         "types" : [ "street_address" ]
      },
      {
         "address_components" : [
            {
               "long_name" : "99",
               "short_name" : "99",
               "types" : [ "street_number" ]
            },
            {
               "long_name" : "Rua Cipriano Antônio Rigotto",
               "short_name" : "Rua Cipriano Antônio Rigotto",
               "types" : [ "route" ]
            },
            {
               "long_name" : "Pilarzinho",
               "short_name" : "Pilarzinho",
               "types" : [ "political", "sublocality", "sublocality_level_1" ]
            },
            {
               "long_name" : "Curitiba",
               "short_name" : "Curitiba",
               "types" : [ "administrative_area_level_2", "political" ]
            },
            {
               "long_name" : "Paraná",
               "short_name" : "PR",
               "types" : [ "administrative_area_level_1", "political" ]
            },
            {
               "long_name" : "Brazil",
               "short_name" : "BR",
               "types" : [ "country", "political" ]
            },
            {
               "long_name" : "82120-210",
               "short_name" : "82120-210",
               "types" : [ "postal_code" ]
            }
         ],
         "formatted_address" : "Rua Cipriano Antônio Rigotto, 99 - Pilarzinho, Curitiba - PR, 82120-210, Brazil",
         "geometry" : {
            "location" : {
               "lat" : -25.3950869,
               "lng" : -49.2740338
            },
            "location_type" : "RANGE_INTERPOLATED",
            "viewport" : {
               "northeast" : {
                  "lat" : -25.3937379197085,
                  "lng" : -49.27268481970849
               },
               "southwest" : {
                  "lat" : -25.3964358802915,
                  "lng" : -49.27538278029149
               }
            }
         },
         "place_id" : "ElBSdWEgQ2lwcmlhbm8gQW50w7RuaW8gUmlnb3R0bywgOTkgLSBQaWxhcnppbmhvLCBDdXJpdGliYSAtIFBSLCA4MjEyMC0yMTAsIEJyYXppbCIaEhgKFAoSCVWBy4O35tyUEYVNVTvemiUvEGM",
         "types" : [ "street_address" ]
      },
      {
         "address_components" : [
            {
               "long_name" : "62",
               "short_name" : "62",
               "types" : [ "street_number" ]
            },
            {
               "long_name" : "Rua Cipriano Antônio Rigotto",
               "short_name" : "Rua Cipriano Antônio Rigotto",
               "types" : [ "route" ]
            },
            {
               "long_name" : "Pilarzinho",
               "short_name" : "Pilarzinho",
               "types" : [ "political", "sublocality", "sublocality_level_1" ]
            },
            {
               "long_name" : "Curitiba",
               "short_name" : "Curitiba",
               "types" : [ "administrative_area_level_2", "political" ]
            },
            {
               "long_name" : "Paraná",
               "short_name" : "PR",
               "types" : [ "administrative_area_level_1", "political" ]
            },
            {
               "long_name" : "Brazil",
               "short_name" : "BR",
               "types" : [ "country", "political" ]
            },
            {
               "long_name" : "82120-210",
               "short_name" : "82120-210",
               "types" : [ "postal_code" ]
            }
         ],
         "formatted_address" : "Rua Cipriano Antônio Rigotto, 62 - Pilarzinho, Curitiba - PR, 82120-210, Brazil",
         "geometry" : {
            "bounds" : {
               "northeast" : {
                  "lat" : -25.3943264,
                  "lng" : -49.27374709999999
               },
               "southwest" : {
                  "lat" : -25.3953249,
                  "lng" : -49.2750158
               }
            },
            "location" : {
               "lat" : -25.3948211,
               "lng" : -49.274377
            },
            "location_type" : "GEOMETRIC_CENTER",
            "viewport" : {
               "northeast" : {
                  "lat" : -25.39347666970849,
                  "lng" : -49.2730324697085
               },
               "southwest" : {
                  "lat" : -25.3961746302915,
                  "lng" : -49.2757304302915
               }
            }
         },
         "place_id" : "ChIJVYHLg7fm3JQRhE1VO96aJS8",
         "types" : [ "route" ]
      },
      {
         "address_components" : [
            {
               "long_name" : "82120-210",
               "short_name" : "82120-210",
               "types" : [ "postal_code" ]
            },
            {
               "long_name" : "Pilarzinho",
               "short_name" : "Pilarzinho",
               "types" : [ "political", "sublocality", "sublocality_level_1" ]
            },
            {
               "long_name" : "Curitiba",
               "short_name" : "Curitiba",
               "types" : [ "administrative_area_level_2", "political" ]
            },
            {
               "long_name" : "State of Paraná",
               "short_name" : "PR",
               "types" : [ "administrative_area_level_1", "political" ]
            },
            {
               "long_name" : "Brazil",
               "short_name" : "BR",
               "types" : [ "country", "political" ]
            }
         ],
         "formatted_address" : "Pilarzinho, Curitiba - State of Paraná, 82120-210, Brazil",
         "geometry" : {
            "bounds" : {
               "northeast" : {
                  "lat" : -25.3940667,
                  "lng" : -49.2729467
               },
               "southwest" : {
                  "lat" : -25.3958553,
                  "lng" : -49.2753922
               }
            },
            "location" : {
               "lat" : -25.3949756,
               "lng" : -49.2740837
            },
            "location_type" : "APPROXIMATE",
            "viewport" : {
               "northeast" : {
                  "lat" : -25.3936120197085,
                  "lng" : -49.2728204697085
               },
               "southwest" : {
                  "lat" : -25.39630998029151,
                  "lng" : -49.2755184302915
               }
            }
         },
         "place_id" : "ChIJ-8MS27nm3JQRbXeJ1-mnpW0",
         "types" : [ "postal_code" ]
      },
      {
         "address_components" : [
            {
               "long_name" : "82200",
               "short_name" : "82200",
               "types" : [ "postal_code", "postal_code_prefix" ]
            },
            {
               "long_name" : "Curitiba",
               "short_name" : "Curitiba",
               "types" : [ "administrative_area_level_2", "political" ]
            },
            {
               "long_name" : "State of Paraná",
               "short_name" : "PR",
               "types" : [ "administrative_area_level_1", "political" ]
            },
            {
               "long_name" : "Brazil",
               "short_name" : "BR",
               "types" : [ "country", "political" ]
            }
         ],
         "formatted_address" : "Curitiba - State of Paraná, 82200, Brazil",
         "geometry" : {
            "bounds" : {
               "northeast" : {
                  "lat" : -25.3887457,
                  "lng" : -49.25792020000001
               },
               "southwest" : {
                  "lat" : -25.4020097,
                  "lng" : -49.2773835
               }
            },
            "location" : {
               "lat" : -25.3972295,
               "lng" : -49.2664018
            },
            "location_type" : "APPROXIMATE",
            "viewport" : {
               "northeast" : {
                  "lat" : -25.3887457,
                  "lng" : -49.25792020000001
               },
               "southwest" : {
                  "lat" : -25.4020097,
                  "lng" : -49.2773835
               }
            }
         },
         "place_id" : "ChIJO8bWIbzm3JQRJ08D1e19NFA",
         "types" : [ "postal_code", "postal_code_prefix" ]
      },
      {
         "address_components" : [
            {
               "long_name" : "Pilarzinho",
               "short_name" : "Pilarzinho",
               "types" : [ "political", "sublocality", "sublocality_level_1" ]
            },
            {
               "long_name" : "Curitiba",
               "short_name" : "Curitiba",
               "types" : [ "administrative_area_level_2", "political" ]
            },
            {
               "long_name" : "State of Paraná",
               "short_name" : "PR",
               "types" : [ "administrative_area_level_1", "political" ]
            },
            {
               "long_name" : "Brazil",
               "short_name" : "BR",
               "types" : [ "country", "political" ]
            }
         ],
         "formatted_address" : "Pilarzinho, Curitiba - State of Paraná, Brazil",
         "geometry" : {
            "bounds" : {
               "northeast" : {
                  "lat" : -25.3750081,
                  "lng" : -49.2711122
               },
               "southwest" : {
                  "lat" : -25.4041924,
                  "lng" : -49.3052765
               }
            },
            "location" : {
               "lat" : -25.39629,
               "lng" : -49.2875992
            },
            "location_type" : "APPROXIMATE",
            "viewport" : {
               "northeast" : {
                  "lat" : -25.3750081,
                  "lng" : -49.2711122
               },
               "southwest" : {
                  "lat" : -25.4041924,
                  "lng" : -49.3052765
               }
            }
         },
         "place_id" : "ChIJWQuM6zPh3JQR1_AE4OwV5jU",
         "types" : [ "political", "sublocality", "sublocality_level_1" ]
      },
      {
         "address_components" : [
            {
               "long_name" : "Curitiba",
               "short_name" : "Curitiba",
               "types" : [ "locality", "political" ]
            },
            {
               "long_name" : "Curitiba",
               "short_name" : "Curitiba",
               "types" : [ "administrative_area_level_2", "political" ]
            },
            {
               "long_name" : "State of Paraná",
               "short_name" : "PR",
               "types" : [ "administrative_area_level_1", "political" ]
            },
            {
               "long_name" : "Brazil",
               "short_name" : "BR",
               "types" : [ "country", "political" ]
            }
         ],
         "formatted_address" : "Curitiba, State of Paraná, Brazil",
         "geometry" : {
            "bounds" : {
               "northeast" : {
                  "lat" : -25.346995,
                  "lng" : -49.1897635
               },
               "southwest" : {
                  "lat" : -25.6432382,
                  "lng" : -49.38983289999999
               }
            },
            "location" : {
               "lat" : -25.4289541,
               "lng" : -49.267137
            },
            "location_type" : "APPROXIMATE",
            "viewport" : {
               "northeast" : {
                  "lat" : -25.346995,
                  "lng" : -49.1897635
               },
               "southwest" : {
                  "lat" : -25.6432382,
                  "lng" : -49.38983289999999
               }
            }
         },
         "place_id" : "ChIJ3bPNUVPj3JQRCejLuqVrL20",
         "types" : [ "locality", "political" ]
      },
      {
         "address_components" : [
            {
               "long_name" : "Curitiba",
               "short_name" : "Curitiba",
               "types" : [ "administrative_area_level_2", "political" ]
            },
            {
               "long_name" : "State of Paraná",
               "short_name" : "PR",
               "types" : [ "administrative_area_level_1", "political" ]
            },
            {
               "long_name" : "Brazil",
               "short_name" : "BR",
               "types" : [ "country", "political" ]
            }
         ],
         "formatted_address" : "Curitiba - State of Paraná, Brazil",
         "geometry" : {
            "bounds" : {
               "northeast" : {
                  "lat" : -25.346736,
                  "lng" : -49.18522489999999
               },
               "southwest" : {
                  "lat" : -25.6453862,
                  "lng" : -49.38933859999999
               }
            },
            "location" : {
               "lat" : -25.4808762,
               "lng" : -49.3044253
            },
            "location_type" : "APPROXIMATE",
            "viewport" : {
               "northeast" : {
                  "lat" : -25.346736,
                  "lng" : -49.18522489999999
               },
               "southwest" : {
                  "lat" : -25.6453862,
                  "lng" : -49.38933859999999
               }
            }
         },
         "place_id" : "ChIJ8Q8J_PXj3JQRR7crCbCDejw",
         "types" : [ "administrative_area_level_2", "political" ]
      },
      {
         "address_components" : [
            {
               "long_name" : "State of Paraná",
               "short_name" : "PR",
               "types" : [ "administrative_area_level_1", "political" ]
            },
            {
               "long_name" : "Brazil",
               "short_name" : "BR",
               "types" : [ "country", "political" ]
            }
         ],
         "formatted_address" : "State of Paraná, Brazil",
         "geometry" : {
            "bounds" : {
               "northeast" : {
                  "lat" : -22.5166644,
                  "lng" : -48.0235303
               },
               "southwest" : {
                  "lat" : -26.7172983,
                  "lng" : -54.6192979
               }
            },
            "location" : {
               "lat" : -25.2520888,
               "lng" : -52.0215415
            },
            "location_type" : "APPROXIMATE",
            "viewport" : {
               "northeast" : {
                  "lat" : -22.5166644,
                  "lng" : -48.0235303
               },
               "southwest" : {
                  "lat" : -26.7172983,
                  "lng" : -54.6192979
               }
            }
         },
         "place_id" : "ChIJnWK4MJQL25QRYfDOY1D9k-g",
         "types" : [ "administrative_area_level_1", "political" ]
      },
      {
         "address_components" : [
            {
               "long_name" : "Brazil",
               "short_name" : "BR",
               "types" : [ "country", "political" ]
            }
         ],
         "formatted_address" : "Brazil",
         "geometry" : {
            "bounds" : {
               "northeast" : {
                  "lat" : 5.2717863,
                  "lng" : -28.650543
               },
               "southwest" : {
                  "lat" : -34.0891,
                  "lng" : -73.9828169
               }
            },
            "location" : {
               "lat" : -14.235004,
               "lng" : -51.92528
            },
            "location_type" : "APPROXIMATE",
            "viewport" : {
               "northeast" : {
                  "lat" : 5.2717863,
                  "lng" : -28.650543
               },
               "southwest" : {
                  "lat" : -34.0891,
                  "lng" : -73.9828169
               }
            }
         },
         "place_id" : "ChIJzyjM68dZnAARYz4p8gYVWik",
         "types" : [ "country", "political" ]
      }
   ],
   "status" : "OK"
}
