{
   "plus_code" : {
      "compound_code" : "HPC6+VJ Curitiba, State of Paraná, Brazil",
      "global_code" : "586GHPC6+VJ"
   },
   "results" : [
      {
         "address_components" : [
            {
               "long_name" : "1380",
               "short_name" : "1380",
               "types" : [ "street_number" ]
            },
            {
               "long_name" : "Rua Presidente Taunay",
               "short_name" : "Alameda Presidente Taunay",
               "types" : [ "route" ]
            },
            {
               "long_name" : "Batel",
               "short_name" : "Batel",
               "types" : [ "political", "sublocality", "sublocality_level_1" ]
            },
            {
               "long_name" : "Curitiba",
               "short_name" : "Curitiba",
               "types" : [ "administrative_area_level_2", "political" ]
            },
            {
               "long_name" : "Paraná",
               "short_name" : "PR",
               "types" : [ "administrative_area_level_1", "political" ]
            },
            {
               "long_name" : "Brazil",
               "short_name" : "BR",
               "types" : [ "country", "political" ]
            },
            {
               "long_name" : "80420-180",
               "short_name" : "80420-180",
               "types" : [ "postal_code" ]
            }
         ],
         "formatted_address" : "R. Pres. Taunay, 1380 - Batel, Curitiba - PR, 80420-180, Brazil",
         "geometry" : {
            "location" : {
               "lat" : -25.4278537,
               "lng" : -49.2888201
            },
            "location_type" : "ROOFTOP",
            "viewport" : {
               "northeast" : {
                  "lat" : -25.4265047197085,
                  "lng" : -49.2874711197085
               },
               "southwest" : {
                  "lat" : -25.4292026802915,
                  "lng" : -49.29016908029149
               }
            }
         },
         "place_id" : "ChIJtRklSvfj3JQRpbMYHR87raw",
         "plus_code" : {
            "compound_code" : "HPC6+VF Curitiba, State of Paraná, Brazil",
            "global_code" : "586GHPC6+VF"
         },
         "types" : [ "street_address" ]
      },
      {
         "address_components" : [
            {
               "long_name" : "891",
               "short_name" : "891",
               "types" : [ "street_number" ]
            },
            {
               "long_name" : "Rua Padre Agostinho",
               "short_name" : "R. Padre Agostinho",
               "types" : [ "route" ]
            },
            {
               "long_name" : "Mercês",
               "short_name" : "Mercês",
               "types" : [ "political", "sublocality", "sublocality_level_1" ]
            },
            {
               "long_name" : "Curitiba",
               "short_name" : "Curitiba",
               "types" : [ "administrative_area_level_2", "political" ]
            },
            {
               "long_name" : "Paraná",
               "short_name" : "PR",
               "types" : [ "administrative_area_level_1", "political" ]
            },
            {
               "long_name" : "Brazil",
               "short_name" : "BR",
               "types" : [ "country", "political" ]
            },
            {
               "long_name" : "80430-050",
               "short_name" : "80430-050",
               "types" : [ "postal_code" ]
            }
         ],
         "formatted_address" : "R. Padre Agostinho, 891 - Mercês, Curitiba - PR, 80430-050, Brazil",
         "geometry" : {
            "location" : {
               "lat" : -25.4274597,
               "lng" : -49.28820289999999
            },
            "location_type" : "ROOFTOP",
            "viewport" : {
               "northeast" : {
                  "lat" : -25.4261107197085,
                  "lng" : -49.2868539197085
               },
               "southwest" : {
                  "lat" : -25.4288086802915,
                  "lng" : -49.2895518802915
               }
            }
         },
         "place_id" : "ChIJWbzNnnHl3JQRxL6_KEq4x_E",
         "plus_code" : {
            "compound_code" : "HPF6+2P Mercês - Matriz, Curitiba - State of Paraná, Brazil",
            "global_code" : "586GHPF6+2P"
         },
         "types" : [ "establishment", "point_of_interest" ]
      },
      {
         "address_components" : [
            {
               "long_name" : "951",
               "short_name" : "951",
               "types" : [ "street_number" ]
            },
            {
               "long_name" : "Rua Padre Agostinho",
               "short_name" : "R. Padre Agostinho",
               "types" : [ "route" ]
            },
            {
               "long_name" : "Mercês",
               "short_name" : "Mercês",
               "types" : [ "political", "sublocality", "sublocality_level_1" ]
            },
            {
               "long_name" : "Curitiba",
               "short_name" : "Curitiba",
               "types" : [ "administrative_area_level_2", "political" ]
            },
            {
               "long_name" : "Paraná",
               "short_name" : "PR",
               "types" : [ "administrative_area_level_1", "political" ]
            },
            {
               "long_name" : "Brazil",
               "short_name" : "BR",
               "types" : [ "country", "political" ]
            },
            {
               "long_name" : "80430-050",
               "short_name" : "80430-050",
               "types" : [ "postal_code" ]
            }
         ],
         "formatted_address" : "R. Padre Agostinho, 951 - Mercês, Curitiba - PR, 80430-050, Brazil",
         "geometry" : {
            "location" : {
               "lat" : -25.4274362,
               "lng" : -49.28883090000001
            },
            "location_type" : "ROOFTOP",
            "viewport" : {
               "northeast" : {
                  "lat" : -25.4260872197085,
                  "lng" : -49.28748191970851
               },
               "southwest" : {
                  "lat" : -25.4287851802915,
                  "lng" : -49.29017988029151
               }
            }
         },
         "place_id" : "ChIJJyvNQvfj3JQRsC35t4azwwY",
         "plus_code" : {
            "compound_code" : "HPF6+2F Curitiba, State of Paraná, Brazil",
            "global_code" : "586GHPF6+2F"
         },
         "types" : [ "establishment", "premise" ]
      },
      {
         "address_components" : [
            {
               "long_name" : "916",
               "short_name" : "916",
               "types" : [ "street_number" ]
            },
            {
               "long_name" : "Rua Padre Agostinho",
               "short_name" : "R. Padre Agostinho",
               "types" : [ "route" ]
            },
            {
               "long_name" : "São Francisco",
               "short_name" : "São Francisco",
               "types" : [ "political", "sublocality", "sublocality_level_1" ]
            },
            {
               "long_name" : "Curitiba",
               "short_name" : "Curitiba",
               "types" : [ "administrative_area_level_2", "political" ]
            },
            {
               "long_name" : "Paraná",
               "short_name" : "PR",
               "types" : [ "administrative_area_level_1", "political" ]
            },
            {
               "long_name" : "Brazil",
               "short_name" : "BR",
               "types" : [ "country", "political" ]
            },
            {
               "long_name" : "80430-050",
               "short_name" : "80430-050",
               "types" : [ "postal_code" ]
            }
         ],
         "formatted_address" : "R. Padre Agostinho, 916 - São Francisco, Curitiba - PR, 80430-050, Brazil",
         "geometry" : {
            "location" : {
               "lat" : -25.4272795,
               "lng" : -49.2886829
            },
            "location_type" : "RANGE_INTERPOLATED",
            "viewport" : {
               "northeast" : {
                  "lat" : -25.4259305197085,
                  "lng" : -49.2873339197085
               },
               "southwest" : {
                  "lat" : -25.4286284802915,
                  "lng" : -49.29003188029149
               }
            }
         },
         "place_id" : "Ej9SLiBQYWRyZSBBZ29zdGluaG8sIDkxNiAtIFPDo28gRnJhbmNpc2NvLCBDdXJpdGliYSAtIFBSLCBCcmF6aWwiGxIZChQKEgnfXABS9-PclBGS3nkYHoocExCUBw",
         "types" : [ "street_address" ]
      },
      {
         "address_components" : [
            {
               "long_name" : "902-986",
               "short_name" : "902-986",
               "types" : [ "street_number" ]
            },
            {
               "long_name" : "Rua Padre Agostinho",
               "short_name" : "R. Padre Agostinho",
               "types" : [ "route" ]
            },
            {
               "long_name" : "São Francisco",
               "short_name" : "São Francisco",
               "types" : [ "political", "sublocality", "sublocality_level_1" ]
            },
            {
               "long_name" : "Curitiba",
               "short_name" : "Curitiba",
               "types" : [ "administrative_area_level_2", "political" ]
            },
            {
               "long_name" : "Paraná",
               "short_name" : "PR",
               "types" : [ "administrative_area_level_1", "political" ]
            },
            {
               "long_name" : "Brazil",
               "short_name" : "BR",
               "types" : [ "country", "political" ]
            },
            {
               "long_name" : "80430-050",
               "short_name" : "80430-050",
               "types" : [ "postal_code" ]
            }
         ],
         "formatted_address" : "R. Padre Agostinho, 902-986 - São Francisco, Curitiba - PR, 80430-050, Brazil",
         "geometry" : {
            "bounds" : {
               "northeast" : {
                  "lat" : -25.4272275,
                  "lng" : -49.28855120000001
               },
               "southwest" : {
                  "lat" : -25.4274976,
                  "lng" : -49.2892352
               }
            },
            "location" : {
               "lat" : -25.4273626,
               "lng" : -49.2888932
            },
            "location_type" : "GEOMETRIC_CENTER",
            "viewport" : {
               "northeast" : {
                  "lat" : -25.42601356970849,
                  "lng" : -49.28754421970851
               },
               "southwest" : {
                  "lat" : -25.4287115302915,
                  "lng" : -49.29024218029151
               }
            }
         },
         "place_id" : "ChIJ31wAUvfj3JQRkt55GB6KHBM",
         "types" : [ "route" ]
      },
      {
         "address_components" : [
            {
               "long_name" : "80430",
               "short_name" : "80430",
               "types" : [ "postal_code", "postal_code_prefix" ]
            },
            {
               "long_name" : "Matriz",
               "short_name" : "Matriz",
               "types" : [ "administrative_area_level_4", "political" ]
            },
            {
               "long_name" : "Curitiba",
               "short_name" : "Curitiba",
               "types" : [ "administrative_area_level_2", "political" ]
            },
            {
               "long_name" : "State of Paraná",
               "short_name" : "PR",
               "types" : [ "administrative_area_level_1", "political" ]
            },
            {
               "long_name" : "Brazil",
               "short_name" : "BR",
               "types" : [ "country", "political" ]
            }
         ],
         "formatted_address" : "Matriz, Curitiba - State of Paraná, 80430, Brazil",
         "geometry" : {
            "bounds" : {
               "northeast" : {
                  "lat" : -25.4225315,
                  "lng" : -49.2845763
               },
               "southwest" : {
                  "lat" : -25.4355844,
                  "lng" : -49.2939582
               }
            },
            "location" : {
               "lat" : -25.4301074,
               "lng" : -49.28794540000001
            },
            "location_type" : "APPROXIMATE",
            "viewport" : {
               "northeast" : {
                  "lat" : -25.4225315,
                  "lng" : -49.2845763
               },
               "southwest" : {
                  "lat" : -25.4355844,
                  "lng" : -49.2939582
               }
            }
         },
         "place_id" : "ChIJeTW71PDj3JQRNLrf10nyrz4",
         "types" : [ "postal_code", "postal_code_prefix" ]
      },
      {
         "address_components" : [
            {
               "long_name" : "Mercês",
               "short_name" : "Mercês",
               "types" : [ "political", "sublocality", "sublocality_level_1" ]
            },
            {
               "long_name" : "Curitiba",
               "short_name" : "Curitiba",
               "types" : [ "administrative_area_level_2", "political" ]
            },
            {
               "long_name" : "State of Paraná",
               "short_name" : "PR",
               "types" : [ "administrative_area_level_1", "political" ]
            },
            {
               "long_name" : "Brazil",
               "short_name" : "BR",
               "types" : [ "country", "political" ]
            }
         ],
         "formatted_address" : "Mercês, Curitiba - State of Paraná, Brazil",
         "geometry" : {
            "bounds" : {
               "northeast" : {
                  "lat" : -25.4142271,
                  "lng" : -49.2791773
               },
               "southwest" : {
                  "lat" : -25.4306924,
                  "lng" : -49.30881369999999
               }
            },
            "location" : {
               "lat" : -25.4220894,
               "lng" : -49.2918813
            },
            "location_type" : "APPROXIMATE",
            "viewport" : {
               "northeast" : {
                  "lat" : -25.4142271,
                  "lng" : -49.2791773
               },
               "southwest" : {
                  "lat" : -25.4306924,
                  "lng" : -49.30881369999999
               }
            }
         },
         "place_id" : "ChIJlVV3tfzj3JQRQZdn8x7IoIw",
         "types" : [ "political", "sublocality", "sublocality_level_1" ]
      },
      {
         "address_components" : [
            {
               "long_name" : "Matriz",
               "short_name" : "Matriz",
               "types" : [ "administrative_area_level_4", "political" ]
            },
            {
               "long_name" : "Curitiba",
               "short_name" : "Curitiba",
               "types" : [ "administrative_area_level_2", "political" ]
            },
            {
               "long_name" : "State of Paraná",
               "short_name" : "PR",
               "types" : [ "administrative_area_level_1", "political" ]
            },
            {
               "long_name" : "Brazil",
               "short_name" : "BR",
               "types" : [ "country", "political" ]
            }
         ],
         "formatted_address" : "Matriz, Curitiba - State of Paraná, Brazil",
         "geometry" : {
            "bounds" : {
               "northeast" : {
                  "lat" : -25.3928639,
                  "lng" : -49.2184679
               },
               "southwest" : {
                  "lat" : -25.4688678,
                  "lng" : -49.3192934
               }
            },
            "location" : {
               "lat" : -25.4217847,
               "lng" : -49.2740045
            },
            "location_type" : "APPROXIMATE",
            "viewport" : {
               "northeast" : {
                  "lat" : -25.3928639,
                  "lng" : -49.2184679
               },
               "southwest" : {
                  "lat" : -25.4688678,
                  "lng" : -49.3192934
               }
            }
         },
         "place_id" : "ChIJSdL-QBTk3JQRTa4Zsr5CKw0",
         "types" : [ "administrative_area_level_4", "political" ]
      },
      {
         "address_components" : [
            {
               "long_name" : "Curitiba",
               "short_name" : "Curitiba",
               "types" : [ "locality", "political" ]
            },
            {
               "long_name" : "Curitiba",
               "short_name" : "Curitiba",
               "types" : [ "administrative_area_level_2", "political" ]
            },
            {
               "long_name" : "State of Paraná",
               "short_name" : "PR",
               "types" : [ "administrative_area_level_1", "political" ]
            },
            {
               "long_name" : "Brazil",
               "short_name" : "BR",
               "types" : [ "country", "political" ]
            }
         ],
         "formatted_address" : "Curitiba, State of Paraná, Brazil",
         "geometry" : {
            "bounds" : {
               "northeast" : {
                  "lat" : -25.346995,
                  "lng" : -49.1897635
               },
               "southwest" : {
                  "lat" : -25.6432382,
                  "lng" : -49.38983289999999
               }
            },
            "location" : {
               "lat" : -25.4289541,
               "lng" : -49.267137
            },
            "location_type" : "APPROXIMATE",
            "viewport" : {
               "northeast" : {
                  "lat" : -25.346995,
                  "lng" : -49.1897635
               },
               "southwest" : {
                  "lat" : -25.6432382,
                  "lng" : -49.38983289999999
               }
            }
         },
         "place_id" : "ChIJ3bPNUVPj3JQRCejLuqVrL20",
         "types" : [ "locality", "political" ]
      },
      {
         "address_components" : [
            {
               "long_name" : "Curitiba",
               "short_name" : "Curitiba",
               "types" : [ "administrative_area_level_2", "political" ]
            },
            {
               "long_name" : "State of Paraná",
               "short_name" : "PR",
               "types" : [ "administrative_area_level_1", "political" ]
            },
            {
               "long_name" : "Brazil",
               "short_name" : "BR",
               "types" : [ "country", "political" ]
            }
         ],
         "formatted_address" : "Curitiba - State of Paraná, Brazil",
         "geometry" : {
            "bounds" : {
               "northeast" : {
                  "lat" : -25.346736,
                  "lng" : -49.18522489999999
               },
               "southwest" : {
                  "lat" : -25.6453862,
                  "lng" : -49.38933859999999
               }
            },
            "location" : {
               "lat" : -25.4808762,
               "lng" : -49.3044253
            },
            "location_type" : "APPROXIMATE",
            "viewport" : {
               "northeast" : {
                  "lat" : -25.346736,
                  "lng" : -49.18522489999999
               },
               "southwest" : {
                  "lat" : -25.6453862,
                  "lng" : -49.38933859999999
               }
            }
         },
         "place_id" : "ChIJ8Q8J_PXj3JQRR7crCbCDejw",
         "types" : [ "administrative_area_level_2", "political" ]
      },
      {
         "address_components" : [
            {
               "long_name" : "State of Paraná",
               "short_name" : "PR",
               "types" : [ "administrative_area_level_1", "political" ]
            },
            {
               "long_name" : "Brazil",
               "short_name" : "BR",
               "types" : [ "country", "political" ]
            }
         ],
         "formatted_address" : "State of Paraná, Brazil",
         "geometry" : {
            "bounds" : {
               "northeast" : {
                  "lat" : -22.5166644,
                  "lng" : -48.0235303
               },
               "southwest" : {
                  "lat" : -26.7172983,
                  "lng" : -54.6192979
               }
            },
            "location" : {
               "lat" : -25.2520888,
               "lng" : -52.0215415
            },
            "location_type" : "APPROXIMATE",
            "viewport" : {
               "northeast" : {
                  "lat" : -22.5166644,
                  "lng" : -48.0235303
               },
               "southwest" : {
                  "lat" : -26.7172983,
                  "lng" : -54.6192979
               }
            }
         },
         "place_id" : "ChIJnWK4MJQL25QRYfDOY1D9k-g",
         "types" : [ "administrative_area_level_1", "political" ]
      },
      {
         "address_components" : [
            {
               "long_name" : "Brazil",
               "short_name" : "BR",
               "types" : [ "country", "political" ]
            }
         ],
         "formatted_address" : "Brazil",
         "geometry" : {
            "bounds" : {
               "northeast" : {
                  "lat" : 5.2717863,
                  "lng" : -28.650543
               },
               "southwest" : {
                  "lat" : -34.0891,
                  "lng" : -73.9828169
               }
            },
            "location" : {
               "lat" : -14.235004,
               "lng" : -51.92528
            },
            "location_type" : "APPROXIMATE",
            "viewport" : {
               "northeast" : {
                  "lat" : 5.2717863,
                  "lng" : -28.650543
               },
               "southwest" : {
                  "lat" : -34.0891,
                  "lng" : -73.9828169
               }
            }
         },
         "place_id" : "ChIJzyjM68dZnAARYz4p8gYVWik",
         "types" : [ "country", "political" ]
      }
   ],
   "status" : "OK"
}
