{
   "plus_code" : {
      "compound_code" : "JQ63+GC Curitiba, State of Paraná, Brazil",
      "global_code" : "586GJQ63+GC"
   },
   "results" : [
      {
         "address_components" : [
            {
               "long_name" : "1262",
               "short_name" : "1262",
               "types" : [ "street_number" ]
            },
            {
               "long_name" : "Rua Ary Barroso",
               "short_name" : "Rua Ary Barroso",
               "types" : [ "route" ]
            },
            {
               "long_name" : "Boa Vista",
               "short_name" : "Boa Vista",
               "types" : [ "political", "sublocality", "sublocality_level_1" ]
            },
            {
               "long_name" : "Curitiba",
               "short_name" : "Curitiba",
               "types" : [ "administrative_area_level_2", "political" ]
            },
            {
               "long_name" : "Paraná",
               "short_name" : "PR",
               "types" : [ "administrative_area_level_1", "political" ]
            },
            {
               "long_name" : "Brazil",
               "short_name" : "BR",
               "types" : [ "country", "political" ]
            },
            {
               "long_name" : "82560-370",
               "short_name" : "82560-370",
               "types" : [ "postal_code" ]
            }
         ],
         "formatted_address" : "Rua Ary Barroso, 1262 - Boa Vista, Curitiba - PR, 82560-370, Brazil",
         "geometry" : {
            "bounds" : {
               "northeast" : {
                  "lat" : -25.3886553,
                  "lng" : -49.24641219999999
               },
               "southwest" : {
                  "lat" : -25.3888248,
                  "lng" : -49.246582
               }
            },
            "location" : {
               "lat" : -25.388737,
               "lng" : -49.2465089
            },
            "location_type" : "ROOFTOP",
            "viewport" : {
               "northeast" : {
                  "lat" : -25.3873910697085,
                  "lng" : -49.2451481197085
               },
               "southwest" : {
                  "lat" : -25.39008903029151,
                  "lng" : -49.2478460802915
               }
            }
         },
         "place_id" : "ChIJP-GucInm3JQR05asrpWWHMM",
         "types" : [ "premise" ]
      },
      {
         "address_components" : [
            {
               "long_name" : "1262",
               "short_name" : "1262",
               "types" : [ "street_number" ]
            },
            {
               "long_name" : "Rua Ary Barroso Ate 989/990",
               "short_name" : "R. Ary Barroso Ate 989/990",
               "types" : [ "route" ]
            },
            {
               "long_name" : "Boa Vista",
               "short_name" : "Boa Vista",
               "types" : [ "political", "sublocality", "sublocality_level_1" ]
            },
            {
               "long_name" : "Curitiba",
               "short_name" : "Curitiba",
               "types" : [ "administrative_area_level_2", "political" ]
            },
            {
               "long_name" : "Paraná",
               "short_name" : "PR",
               "types" : [ "administrative_area_level_1", "political" ]
            },
            {
               "long_name" : "Brazil",
               "short_name" : "BR",
               "types" : [ "country", "political" ]
            },
            {
               "long_name" : "82560-030",
               "short_name" : "82560-030",
               "types" : [ "postal_code" ]
            }
         ],
         "formatted_address" : "R. Ary Barroso Ate 989/990, 1262 - Boa Vista, Curitiba - PR, 82560-030, Brazil",
         "geometry" : {
            "location" : {
               "lat" : -25.388611,
               "lng" : -49.24651
            },
            "location_type" : "ROOFTOP",
            "viewport" : {
               "northeast" : {
                  "lat" : -25.3872620197085,
                  "lng" : -49.2451610197085
               },
               "southwest" : {
                  "lat" : -25.3899599802915,
                  "lng" : -49.2478589802915
               }
            }
         },
         "place_id" : "ChIJRYM0eonm3JQR1Ll29y5ur_k",
         "plus_code" : {
            "compound_code" : "JQ63+H9 Curitiba, State of Paraná, Brazil",
            "global_code" : "586GJQ63+H9"
         },
         "types" : [ "street_address" ]
      },
      {
         "address_components" : [
            {
               "long_name" : "763",
               "short_name" : "763",
               "types" : [ "street_number" ]
            },
            {
               "long_name" : "Rua Brigadeiro Arthur Carlos Peralta",
               "short_name" : "Rua Brigadeiro Arthur Carlos Peralta",
               "types" : [ "route" ]
            },
            {
               "long_name" : "Boa Vista",
               "short_name" : "Boa Vista",
               "types" : [ "political", "sublocality", "sublocality_level_1" ]
            },
            {
               "long_name" : "Curitiba",
               "short_name" : "Curitiba",
               "types" : [ "administrative_area_level_2", "political" ]
            },
            {
               "long_name" : "Paraná",
               "short_name" : "PR",
               "types" : [ "administrative_area_level_1", "political" ]
            },
            {
               "long_name" : "Brazil",
               "short_name" : "BR",
               "types" : [ "country", "political" ]
            },
            {
               "long_name" : "82560-030",
               "short_name" : "82560-030",
               "types" : [ "postal_code" ]
            }
         ],
         "formatted_address" : "Rua Brigadeiro Arthur Carlos Peralta, 763 - Boa Vista, Curitiba - PR, 82560-030, Brazil",
         "geometry" : {
            "location" : {
               "lat" : -25.388386,
               "lng" : -49.246163
            },
            "location_type" : "ROOFTOP",
            "viewport" : {
               "northeast" : {
                  "lat" : -25.3870370197085,
                  "lng" : -49.2448140197085
               },
               "southwest" : {
                  "lat" : -25.3897349802915,
                  "lng" : -49.24751198029149
               }
            }
         },
         "place_id" : "ChIJwxC2hInm3JQRAg-E2RuvN1I",
         "plus_code" : {
            "compound_code" : "JQ63+JG Boa Vista, Curitiba - State of Paraná, Brazil",
            "global_code" : "586GJQ63+JG"
         },
         "types" : [ "electronics_store", "establishment", "point_of_interest", "store" ]
      },
      {
         "address_components" : [
            {
               "long_name" : "1272",
               "short_name" : "1272",
               "types" : [ "street_number" ]
            },
            {
               "long_name" : "Rua Ary Barroso",
               "short_name" : "Rua Ary Barroso",
               "types" : [ "route" ]
            },
            {
               "long_name" : "Boa Vista",
               "short_name" : "Boa Vista",
               "types" : [ "political", "sublocality", "sublocality_level_1" ]
            },
            {
               "long_name" : "Curitiba",
               "short_name" : "Curitiba",
               "types" : [ "administrative_area_level_2", "political" ]
            },
            {
               "long_name" : "Paraná",
               "short_name" : "PR",
               "types" : [ "administrative_area_level_1", "political" ]
            },
            {
               "long_name" : "Brazil",
               "short_name" : "BR",
               "types" : [ "country", "political" ]
            },
            {
               "long_name" : "82560-370",
               "short_name" : "82560-370",
               "types" : [ "postal_code" ]
            }
         ],
         "formatted_address" : "Rua Ary Barroso, 1272 - Boa Vista, Curitiba - PR, 82560-370, Brazil",
         "geometry" : {
            "location" : {
               "lat" : -25.3885136,
               "lng" : -49.2466233
            },
            "location_type" : "RANGE_INTERPOLATED",
            "viewport" : {
               "northeast" : {
                  "lat" : -25.3871646197085,
                  "lng" : -49.2452743197085
               },
               "southwest" : {
                  "lat" : -25.3898625802915,
                  "lng" : -49.24797228029149
               }
            }
         },
         "place_id" : "EkNSdWEgQXJ5IEJhcnJvc28sIDEyNzIgLSBCb2EgVmlzdGEsIEN1cml0aWJhIC0gUFIsIDgyNTYwLTM3MCwgQnJhemlsIhsSGQoUChIJTQDTeonm3JQRGt2iGw5G08YQ-Ak",
         "types" : [ "street_address" ]
      },
      {
         "address_components" : [
            {
               "long_name" : "1210-1322",
               "short_name" : "1210-1322",
               "types" : [ "street_number" ]
            },
            {
               "long_name" : "Rua Ary Barroso",
               "short_name" : "Rua Ary Barroso",
               "types" : [ "route" ]
            },
            {
               "long_name" : "Boa Vista",
               "short_name" : "Boa Vista",
               "types" : [ "political", "sublocality", "sublocality_level_1" ]
            },
            {
               "long_name" : "Curitiba",
               "short_name" : "Curitiba",
               "types" : [ "administrative_area_level_2", "political" ]
            },
            {
               "long_name" : "Paraná",
               "short_name" : "PR",
               "types" : [ "administrative_area_level_1", "political" ]
            },
            {
               "long_name" : "Brazil",
               "short_name" : "BR",
               "types" : [ "country", "political" ]
            },
            {
               "long_name" : "82560-370",
               "short_name" : "82560-370",
               "types" : [ "postal_code" ]
            }
         ],
         "formatted_address" : "Rua Ary Barroso, 1210-1322 - Boa Vista, Curitiba - PR, 82560-370, Brazil",
         "geometry" : {
            "bounds" : {
               "northeast" : {
                  "lat" : -25.3882915,
                  "lng" : -49.2464373
               },
               "southwest" : {
                  "lat" : -25.3890969,
                  "lng" : -49.2471458
               }
            },
            "location" : {
               "lat" : -25.3887018,
               "lng" : -49.246781
            },
            "location_type" : "GEOMETRIC_CENTER",
            "viewport" : {
               "northeast" : {
                  "lat" : -25.3873452197085,
                  "lng" : -49.2454425697085
               },
               "southwest" : {
                  "lat" : -25.3900431802915,
                  "lng" : -49.2481405302915
               }
            }
         },
         "place_id" : "ChIJTQDTeonm3JQRGt2iGw5G08Y",
         "types" : [ "route" ]
      },
      {
         "address_components" : [
            {
               "long_name" : "82560-370",
               "short_name" : "82560-370",
               "types" : [ "postal_code" ]
            },
            {
               "long_name" : "Boa Vista",
               "short_name" : "Boa Vista",
               "types" : [ "political", "sublocality", "sublocality_level_1" ]
            },
            {
               "long_name" : "Curitiba",
               "short_name" : "Curitiba",
               "types" : [ "administrative_area_level_2", "political" ]
            },
            {
               "long_name" : "State of Paraná",
               "short_name" : "PR",
               "types" : [ "administrative_area_level_1", "political" ]
            },
            {
               "long_name" : "Brazil",
               "short_name" : "BR",
               "types" : [ "country", "political" ]
            }
         ],
         "formatted_address" : "Boa Vista, Curitiba - State of Paraná, 82560-370, Brazil",
         "geometry" : {
            "bounds" : {
               "northeast" : {
                  "lat" : -25.3863734,
                  "lng" : -49.2448663
               },
               "southwest" : {
                  "lat" : -25.3913107,
                  "lng" : -49.2486661
               }
            },
            "location" : {
               "lat" : -25.3891903,
               "lng" : -49.2470799
            },
            "location_type" : "APPROXIMATE",
            "viewport" : {
               "northeast" : {
                  "lat" : -25.3863734,
                  "lng" : -49.2448663
               },
               "southwest" : {
                  "lat" : -25.3913107,
                  "lng" : -49.2486661
               }
            }
         },
         "place_id" : "ChIJZZeqLorm3JQRM2xLAIUDxMo",
         "types" : [ "postal_code" ]
      },
      {
         "address_components" : [
            {
               "long_name" : "82560",
               "short_name" : "82560",
               "types" : [ "postal_code", "postal_code_prefix" ]
            },
            {
               "long_name" : "Boa Vista",
               "short_name" : "Boa Vista",
               "types" : [ "political", "sublocality", "sublocality_level_1" ]
            },
            {
               "long_name" : "Curitiba",
               "short_name" : "Curitiba",
               "types" : [ "administrative_area_level_2", "political" ]
            },
            {
               "long_name" : "State of Paraná",
               "short_name" : "PR",
               "types" : [ "administrative_area_level_1", "political" ]
            },
            {
               "long_name" : "Brazil",
               "short_name" : "BR",
               "types" : [ "country", "political" ]
            }
         ],
         "formatted_address" : "Boa Vista, Curitiba - State of Paraná, 82560, Brazil",
         "geometry" : {
            "bounds" : {
               "northeast" : {
                  "lat" : -25.3772091,
                  "lng" : -49.2386618
               },
               "southwest" : {
                  "lat" : -25.3912371,
                  "lng" : -49.2570033
               }
            },
            "location" : {
               "lat" : -25.3855732,
               "lng" : -49.2461329
            },
            "location_type" : "APPROXIMATE",
            "viewport" : {
               "northeast" : {
                  "lat" : -25.3772091,
                  "lng" : -49.2386618
               },
               "southwest" : {
                  "lat" : -25.3912371,
                  "lng" : -49.2570033
               }
            }
         },
         "place_id" : "ChIJd5oST4vm3JQRK46jpyevgaM",
         "types" : [ "postal_code", "postal_code_prefix" ]
      },
      {
         "address_components" : [
            {
               "long_name" : "Boa Vista",
               "short_name" : "Boa Vista",
               "types" : [ "political", "sublocality", "sublocality_level_1" ]
            },
            {
               "long_name" : "Curitiba",
               "short_name" : "Curitiba",
               "types" : [ "administrative_area_level_2", "political" ]
            },
            {
               "long_name" : "State of Paraná",
               "short_name" : "PR",
               "types" : [ "administrative_area_level_1", "political" ]
            },
            {
               "long_name" : "Brazil",
               "short_name" : "BR",
               "types" : [ "country", "political" ]
            }
         ],
         "formatted_address" : "Boa Vista, Curitiba - State of Paraná, Brazil",
         "geometry" : {
            "bounds" : {
               "northeast" : {
                  "lat" : -25.3716464,
                  "lng" : -49.2323934
               },
               "southwest" : {
                  "lat" : -25.4010466,
                  "lng" : -49.2616416
               }
            },
            "location" : {
               "lat" : -25.388446,
               "lng" : -49.2436556
            },
            "location_type" : "APPROXIMATE",
            "viewport" : {
               "northeast" : {
                  "lat" : -25.3716464,
                  "lng" : -49.2323934
               },
               "southwest" : {
                  "lat" : -25.4010466,
                  "lng" : -49.2616416
               }
            }
         },
         "place_id" : "ChIJxxscpYvm3JQRx9mRflxCxZw",
         "types" : [ "political", "sublocality", "sublocality_level_1" ]
      },
      {
         "address_components" : [
            {
               "long_name" : "Boa Vista",
               "short_name" : "Boa Vista",
               "types" : [ "administrative_area_level_4", "political" ]
            },
            {
               "long_name" : "Curitiba",
               "short_name" : "Curitiba",
               "types" : [ "administrative_area_level_2", "political" ]
            },
            {
               "long_name" : "State of Paraná",
               "short_name" : "PR",
               "types" : [ "administrative_area_level_1", "political" ]
            },
            {
               "long_name" : "Brazil",
               "short_name" : "BR",
               "types" : [ "country", "political" ]
            }
         ],
         "formatted_address" : "Boa Vista, Curitiba - State of Paraná, Brazil",
         "geometry" : {
            "bounds" : {
               "northeast" : {
                  "lat" : -25.346995,
                  "lng" : -49.1914303
               },
               "southwest" : {
                  "lat" : -25.4313697,
                  "lng" : -49.2815916
               }
            },
            "location" : {
               "lat" : -25.3886823,
               "lng" : -49.2334685
            },
            "location_type" : "APPROXIMATE",
            "viewport" : {
               "northeast" : {
                  "lat" : -25.346995,
                  "lng" : -49.1914303
               },
               "southwest" : {
                  "lat" : -25.4313697,
                  "lng" : -49.2815916
               }
            }
         },
         "place_id" : "ChIJ4yXhiYjm3JQRib7FMdA38u0",
         "types" : [ "administrative_area_level_4", "political" ]
      },
      {
         "address_components" : [
            {
               "long_name" : "Curitiba",
               "short_name" : "Curitiba",
               "types" : [ "locality", "political" ]
            },
            {
               "long_name" : "Curitiba",
               "short_name" : "Curitiba",
               "types" : [ "administrative_area_level_2", "political" ]
            },
            {
               "long_name" : "State of Paraná",
               "short_name" : "PR",
               "types" : [ "administrative_area_level_1", "political" ]
            },
            {
               "long_name" : "Brazil",
               "short_name" : "BR",
               "types" : [ "country", "political" ]
            }
         ],
         "formatted_address" : "Curitiba, State of Paraná, Brazil",
         "geometry" : {
            "bounds" : {
               "northeast" : {
                  "lat" : -25.346995,
                  "lng" : -49.1897635
               },
               "southwest" : {
                  "lat" : -25.6432382,
                  "lng" : -49.38983289999999
               }
            },
            "location" : {
               "lat" : -25.4289541,
               "lng" : -49.267137
            },
            "location_type" : "APPROXIMATE",
            "viewport" : {
               "northeast" : {
                  "lat" : -25.346995,
                  "lng" : -49.1897635
               },
               "southwest" : {
                  "lat" : -25.6432382,
                  "lng" : -49.38983289999999
               }
            }
         },
         "place_id" : "ChIJ3bPNUVPj3JQRCejLuqVrL20",
         "types" : [ "locality", "political" ]
      },
      {
         "address_components" : [
            {
               "long_name" : "Curitiba",
               "short_name" : "Curitiba",
               "types" : [ "administrative_area_level_2", "political" ]
            },
            {
               "long_name" : "State of Paraná",
               "short_name" : "PR",
               "types" : [ "administrative_area_level_1", "political" ]
            },
            {
               "long_name" : "Brazil",
               "short_name" : "BR",
               "types" : [ "country", "political" ]
            }
         ],
         "formatted_address" : "Curitiba - State of Paraná, Brazil",
         "geometry" : {
            "bounds" : {
               "northeast" : {
                  "lat" : -25.346736,
                  "lng" : -49.18522489999999
               },
               "southwest" : {
                  "lat" : -25.6453862,
                  "lng" : -49.38933859999999
               }
            },
            "location" : {
               "lat" : -25.4808762,
               "lng" : -49.3044253
            },
            "location_type" : "APPROXIMATE",
            "viewport" : {
               "northeast" : {
                  "lat" : -25.346736,
                  "lng" : -49.18522489999999
               },
               "southwest" : {
                  "lat" : -25.6453862,
                  "lng" : -49.38933859999999
               }
            }
         },
         "place_id" : "ChIJ8Q8J_PXj3JQRR7crCbCDejw",
         "types" : [ "administrative_area_level_2", "political" ]
      },
      {
         "address_components" : [
            {
               "long_name" : "State of Paraná",
               "short_name" : "PR",
               "types" : [ "administrative_area_level_1", "political" ]
            },
            {
               "long_name" : "Brazil",
               "short_name" : "BR",
               "types" : [ "country", "political" ]
            }
         ],
         "formatted_address" : "State of Paraná, Brazil",
         "geometry" : {
            "bounds" : {
               "northeast" : {
                  "lat" : -22.5166644,
                  "lng" : -48.0235303
               },
               "southwest" : {
                  "lat" : -26.7172983,
                  "lng" : -54.6192979
               }
            },
            "location" : {
               "lat" : -25.2520888,
               "lng" : -52.0215415
            },
            "location_type" : "APPROXIMATE",
            "viewport" : {
               "northeast" : {
                  "lat" : -22.5166644,
                  "lng" : -48.0235303
               },
               "southwest" : {
                  "lat" : -26.7172983,
                  "lng" : -54.6192979
               }
            }
         },
         "place_id" : "ChIJnWK4MJQL25QRYfDOY1D9k-g",
         "types" : [ "administrative_area_level_1", "political" ]
      },
      {
         "address_components" : [
            {
               "long_name" : "Brazil",
               "short_name" : "BR",
               "types" : [ "country", "political" ]
            }
         ],
         "formatted_address" : "Brazil",
         "geometry" : {
            "bounds" : {
               "northeast" : {
                  "lat" : 5.2717863,
                  "lng" : -28.650543
               },
               "southwest" : {
                  "lat" : -34.0891,
                  "lng" : -73.9828169
               }
            },
            "location" : {
               "lat" : -14.235004,
               "lng" : -51.92528
            },
            "location_type" : "APPROXIMATE",
            "viewport" : {
               "northeast" : {
                  "lat" : 5.2717863,
                  "lng" : -28.650543
               },
               "southwest" : {
                  "lat" : -34.0891,
                  "lng" : -73.9828169
               }
            }
         },
         "place_id" : "ChIJzyjM68dZnAARYz4p8gYVWik",
         "types" : [ "country", "political" ]
      }
   ],
   "status" : "OK"
}
