{
   "plus_code" : {
      "compound_code" : "HPR4+VX Curitiba, State of Paraná, Brazil",
      "global_code" : "586GHPR4+VX"
   },
   "results" : [
      {
         "address_components" : [
            {
               "long_name" : "405",
               "short_name" : "405",
               "types" : [ "street_number" ]
            },
            {
               "long_name" : "Rua João Tschannerl",
               "short_name" : "Rua João Tschannerl",
               "types" : [ "route" ]
            },
            {
               "long_name" : "Vista Alegre",
               "short_name" : "Vista Alegre",
               "types" : [ "political", "sublocality", "sublocality_level_1" ]
            },
            {
               "long_name" : "Curitiba",
               "short_name" : "Curitiba",
               "types" : [ "administrative_area_level_2", "political" ]
            },
            {
               "long_name" : "Paraná",
               "short_name" : "PR",
               "types" : [ "administrative_area_level_1", "political" ]
            },
            {
               "long_name" : "Brazil",
               "short_name" : "BR",
               "types" : [ "country", "political" ]
            },
            {
               "long_name" : "80820-010",
               "short_name" : "80820-010",
               "types" : [ "postal_code" ]
            }
         ],
         "formatted_address" : "Rua João Tschannerl, 405 - Vista Alegre, Curitiba - PR, 80820-010, Brazil",
         "geometry" : {
            "location" : {
               "lat" : -25.407719,
               "lng" : -49.2926607
            },
            "location_type" : "ROOFTOP",
            "viewport" : {
               "northeast" : {
                  "lat" : -25.4063700197085,
                  "lng" : -49.2913117197085
               },
               "southwest" : {
                  "lat" : -25.4090679802915,
                  "lng" : -49.2940096802915
               }
            }
         },
         "place_id" : "ChIJdXyaxE_h3JQRzMG6UKU6s3c",
         "plus_code" : {
            "compound_code" : "HPR4+WW Curitiba, State of Paraná, Brazil",
            "global_code" : "586GHPR4+WW"
         },
         "types" : [ "street_address" ]
      },
      {
         "address_components" : [
            {
               "long_name" : "405",
               "short_name" : "405",
               "types" : [ "street_number" ]
            },
            {
               "long_name" : "Rua João Tschannerl",
               "short_name" : "Rua João Tschannerl",
               "types" : [ "route" ]
            },
            {
               "long_name" : "Vista Alegre",
               "short_name" : "Vista Alegre",
               "types" : [ "political", "sublocality", "sublocality_level_1" ]
            },
            {
               "long_name" : "Curitiba",
               "short_name" : "Curitiba",
               "types" : [ "administrative_area_level_2", "political" ]
            },
            {
               "long_name" : "Paraná",
               "short_name" : "PR",
               "types" : [ "administrative_area_level_1", "political" ]
            },
            {
               "long_name" : "Brazil",
               "short_name" : "BR",
               "types" : [ "country", "political" ]
            },
            {
               "long_name" : "80820-010",
               "short_name" : "80820-010",
               "types" : [ "postal_code" ]
            }
         ],
         "formatted_address" : "Rua João Tschannerl, 405 - Vista Alegre, Curitiba - PR, 80820-010, Brazil",
         "geometry" : {
            "location" : {
               "lat" : -25.407719,
               "lng" : -49.2926607
            },
            "location_type" : "ROOFTOP",
            "viewport" : {
               "northeast" : {
                  "lat" : -25.4063700197085,
                  "lng" : -49.2913117197085
               },
               "southwest" : {
                  "lat" : -25.4090679802915,
                  "lng" : -49.2940096802915
               }
            }
         },
         "place_id" : "ChIJC3yaxE_h3JQRiA-dHRxBFoc",
         "plus_code" : {
            "compound_code" : "HPR4+WW Curitiba, State of Paraná, Brazil",
            "global_code" : "586GHPR4+WW"
         },
         "types" : [ "establishment", "point_of_interest" ]
      },
      {
         "address_components" : [
            {
               "long_name" : "406",
               "short_name" : "406",
               "types" : [ "street_number" ]
            },
            {
               "long_name" : "Rua João Tschannerl",
               "short_name" : "Rua João Tschannerl",
               "types" : [ "route" ]
            },
            {
               "long_name" : "Vista Alegre",
               "short_name" : "Vista Alegre",
               "types" : [ "political", "sublocality", "sublocality_level_1" ]
            },
            {
               "long_name" : "Curitiba",
               "short_name" : "Curitiba",
               "types" : [ "administrative_area_level_2", "political" ]
            },
            {
               "long_name" : "Paraná",
               "short_name" : "PR",
               "types" : [ "administrative_area_level_1", "political" ]
            },
            {
               "long_name" : "Brazil",
               "short_name" : "BR",
               "types" : [ "country", "political" ]
            },
            {
               "long_name" : "80820-010",
               "short_name" : "80820-010",
               "types" : [ "postal_code" ]
            }
         ],
         "formatted_address" : "Rua João Tschannerl, 406 - Vista Alegre, Curitiba - PR, 80820-010, Brazil",
         "geometry" : {
            "location" : {
               "lat" : -25.4078637,
               "lng" : -49.2926347
            },
            "location_type" : "RANGE_INTERPOLATED",
            "viewport" : {
               "northeast" : {
                  "lat" : -25.4065147197085,
                  "lng" : -49.2912857197085
               },
               "southwest" : {
                  "lat" : -25.40921268029151,
                  "lng" : -49.2939836802915
               }
            }
         },
         "place_id" : "EkpSdWEgSm_Do28gVHNjaGFubmVybCwgNDA2IC0gVmlzdGEgQWxlZ3JlLCBDdXJpdGliYSAtIFBSLCA4MDgyMC0wMTAsIEJyYXppbCIbEhkKFAoSCes4G8VP4dyUEWJgLREXr5U6EJYD",
         "types" : [ "street_address" ]
      },
      {
         "address_components" : [
            {
               "long_name" : "3",
               "short_name" : "3",
               "types" : [ "street_number" ]
            },
            {
               "long_name" : "Rua Major Virgolino Esmanhotto",
               "short_name" : "Rua Major Virgolino Esmanhotto",
               "types" : [ "route" ]
            },
            {
               "long_name" : "Vista Alegre",
               "short_name" : "Vista Alegre",
               "types" : [ "political", "sublocality", "sublocality_level_1" ]
            },
            {
               "long_name" : "Curitiba",
               "short_name" : "Curitiba",
               "types" : [ "administrative_area_level_2", "political" ]
            },
            {
               "long_name" : "Paraná",
               "short_name" : "PR",
               "types" : [ "administrative_area_level_1", "political" ]
            },
            {
               "long_name" : "Brazil",
               "short_name" : "BR",
               "types" : [ "country", "political" ]
            },
            {
               "long_name" : "81020-490",
               "short_name" : "81020-490",
               "types" : [ "postal_code" ]
            }
         ],
         "formatted_address" : "Rua Major Virgolino Esmanhotto, 3 - Vista Alegre, Curitiba - PR, 81020-490, Brazil",
         "geometry" : {
            "bounds" : {
               "northeast" : {
                  "lat" : -25.4078637,
                  "lng" : -49.2924488
               },
               "southwest" : {
                  "lat" : -25.4079259,
                  "lng" : -49.2926347
               }
            },
            "location" : {
               "lat" : -25.4078948,
               "lng" : -49.2925418
            },
            "location_type" : "GEOMETRIC_CENTER",
            "viewport" : {
               "northeast" : {
                  "lat" : -25.4065458197085,
                  "lng" : -49.29119276970849
               },
               "southwest" : {
                  "lat" : -25.4092437802915,
                  "lng" : -49.29389073029149
               }
            }
         },
         "place_id" : "ChIJLVv62k_h3JQRwOFhLw9rig4",
         "types" : [ "route" ]
      },
      {
         "address_components" : [
            {
               "long_name" : "80820-010",
               "short_name" : "80820-010",
               "types" : [ "postal_code" ]
            },
            {
               "long_name" : "Vista Alegre",
               "short_name" : "Vista Alegre",
               "types" : [ "political", "sublocality", "sublocality_level_1" ]
            },
            {
               "long_name" : "Curitiba",
               "short_name" : "Curitiba",
               "types" : [ "administrative_area_level_2", "political" ]
            },
            {
               "long_name" : "State of Paraná",
               "short_name" : "PR",
               "types" : [ "administrative_area_level_1", "political" ]
            },
            {
               "long_name" : "Brazil",
               "short_name" : "BR",
               "types" : [ "country", "political" ]
            }
         ],
         "formatted_address" : "Vista Alegre, Curitiba - State of Paraná, 80820-010, Brazil",
         "geometry" : {
            "bounds" : {
               "northeast" : {
                  "lat" : -25.4014427,
                  "lng" : -49.2870156
               },
               "southwest" : {
                  "lat" : -25.4111051,
                  "lng" : -49.2937863
               }
            },
            "location" : {
               "lat" : -25.4058837,
               "lng" : -49.2914311
            },
            "location_type" : "APPROXIMATE",
            "viewport" : {
               "northeast" : {
                  "lat" : -25.4014427,
                  "lng" : -49.2870156
               },
               "southwest" : {
                  "lat" : -25.4111051,
                  "lng" : -49.2937863
               }
            }
         },
         "place_id" : "ChIJTePWbFDh3JQRsSa0S_GsOkQ",
         "types" : [ "postal_code" ]
      },
      {
         "address_components" : [
            {
               "long_name" : "80820",
               "short_name" : "80820",
               "types" : [ "postal_code", "postal_code_prefix" ]
            },
            {
               "long_name" : "Curitiba",
               "short_name" : "Curitiba",
               "types" : [ "administrative_area_level_2", "political" ]
            },
            {
               "long_name" : "State of Paraná",
               "short_name" : "PR",
               "types" : [ "administrative_area_level_1", "political" ]
            },
            {
               "long_name" : "Brazil",
               "short_name" : "BR",
               "types" : [ "country", "political" ]
            }
         ],
         "formatted_address" : "Curitiba - State of Paraná, 80820, Brazil",
         "geometry" : {
            "bounds" : {
               "northeast" : {
                  "lat" : -25.3976204,
                  "lng" : -49.2757005
               },
               "southwest" : {
                  "lat" : -25.4133253,
                  "lng" : -49.29533929999999
               }
            },
            "location" : {
               "lat" : -25.4023021,
               "lng" : -49.2816082
            },
            "location_type" : "APPROXIMATE",
            "viewport" : {
               "northeast" : {
                  "lat" : -25.3976204,
                  "lng" : -49.2757005
               },
               "southwest" : {
                  "lat" : -25.4133253,
                  "lng" : -49.29533929999999
               }
            }
         },
         "place_id" : "ChIJ0-LaZ03h3JQRgyT5jPxCJrk",
         "types" : [ "postal_code", "postal_code_prefix" ]
      },
      {
         "address_components" : [
            {
               "long_name" : "Vista Alegre",
               "short_name" : "Vista Alegre",
               "types" : [ "political", "sublocality", "sublocality_level_1" ]
            },
            {
               "long_name" : "Curitiba",
               "short_name" : "Curitiba",
               "types" : [ "administrative_area_level_2", "political" ]
            },
            {
               "long_name" : "State of Paraná",
               "short_name" : "PR",
               "types" : [ "administrative_area_level_1", "political" ]
            },
            {
               "long_name" : "Brazil",
               "short_name" : "BR",
               "types" : [ "country", "political" ]
            }
         ],
         "formatted_address" : "Vista Alegre, Curitiba - State of Paraná, Brazil",
         "geometry" : {
            "bounds" : {
               "northeast" : {
                  "lat" : -25.3955158,
                  "lng" : -49.28218260000001
               },
               "southwest" : {
                  "lat" : -25.4180266,
                  "lng" : -49.3082755
               }
            },
            "location" : {
               "lat" : -25.4105803,
               "lng" : -49.2919987
            },
            "location_type" : "APPROXIMATE",
            "viewport" : {
               "northeast" : {
                  "lat" : -25.3955158,
                  "lng" : -49.28218260000001
               },
               "southwest" : {
                  "lat" : -25.4180266,
                  "lng" : -49.3082755
               }
            }
         },
         "place_id" : "ChIJY6ukCkXh3JQR9Z_FEZ_VXa4",
         "types" : [ "political", "sublocality", "sublocality_level_1" ]
      },
      {
         "address_components" : [
            {
               "long_name" : "Santa Felicidade",
               "short_name" : "Santa Felicidade",
               "types" : [ "administrative_area_level_4", "political" ]
            },
            {
               "long_name" : "Curitiba",
               "short_name" : "Curitiba",
               "types" : [ "administrative_area_level_2", "political" ]
            },
            {
               "long_name" : "State of Paraná",
               "short_name" : "PR",
               "types" : [ "administrative_area_level_1", "political" ]
            },
            {
               "long_name" : "Brazil",
               "short_name" : "BR",
               "types" : [ "country", "political" ]
            }
         ],
         "formatted_address" : "Santa Felicidade, Curitiba - State of Paraná, Brazil",
         "geometry" : {
            "bounds" : {
               "northeast" : {
                  "lat" : -25.3574986,
                  "lng" : -49.28389989999999
               },
               "southwest" : {
                  "lat" : -25.478325,
                  "lng" : -49.38983289999999
               }
            },
            "location" : {
               "lat" : -25.4040074,
               "lng" : -49.3286941
            },
            "location_type" : "APPROXIMATE",
            "viewport" : {
               "northeast" : {
                  "lat" : -25.3574986,
                  "lng" : -49.28389989999999
               },
               "southwest" : {
                  "lat" : -25.478325,
                  "lng" : -49.38983289999999
               }
            }
         },
         "place_id" : "ChIJVyZ-IkHh3JQRDh40dyt3LqI",
         "types" : [ "administrative_area_level_4", "political" ]
      },
      {
         "address_components" : [
            {
               "long_name" : "Curitiba",
               "short_name" : "Curitiba",
               "types" : [ "locality", "political" ]
            },
            {
               "long_name" : "Curitiba",
               "short_name" : "Curitiba",
               "types" : [ "administrative_area_level_2", "political" ]
            },
            {
               "long_name" : "State of Paraná",
               "short_name" : "PR",
               "types" : [ "administrative_area_level_1", "political" ]
            },
            {
               "long_name" : "Brazil",
               "short_name" : "BR",
               "types" : [ "country", "political" ]
            }
         ],
         "formatted_address" : "Curitiba, State of Paraná, Brazil",
         "geometry" : {
            "bounds" : {
               "northeast" : {
                  "lat" : -25.346995,
                  "lng" : -49.1897635
               },
               "southwest" : {
                  "lat" : -25.6432382,
                  "lng" : -49.38983289999999
               }
            },
            "location" : {
               "lat" : -25.4289541,
               "lng" : -49.267137
            },
            "location_type" : "APPROXIMATE",
            "viewport" : {
               "northeast" : {
                  "lat" : -25.346995,
                  "lng" : -49.1897635
               },
               "southwest" : {
                  "lat" : -25.6432382,
                  "lng" : -49.38983289999999
               }
            }
         },
         "place_id" : "ChIJ3bPNUVPj3JQRCejLuqVrL20",
         "types" : [ "locality", "political" ]
      },
      {
         "address_components" : [
            {
               "long_name" : "Curitiba",
               "short_name" : "Curitiba",
               "types" : [ "administrative_area_level_2", "political" ]
            },
            {
               "long_name" : "State of Paraná",
               "short_name" : "PR",
               "types" : [ "administrative_area_level_1", "political" ]
            },
            {
               "long_name" : "Brazil",
               "short_name" : "BR",
               "types" : [ "country", "political" ]
            }
         ],
         "formatted_address" : "Curitiba - State of Paraná, Brazil",
         "geometry" : {
            "bounds" : {
               "northeast" : {
                  "lat" : -25.346736,
                  "lng" : -49.18522489999999
               },
               "southwest" : {
                  "lat" : -25.6453862,
                  "lng" : -49.38933859999999
               }
            },
            "location" : {
               "lat" : -25.4808762,
               "lng" : -49.3044253
            },
            "location_type" : "APPROXIMATE",
            "viewport" : {
               "northeast" : {
                  "lat" : -25.346736,
                  "lng" : -49.18522489999999
               },
               "southwest" : {
                  "lat" : -25.6453862,
                  "lng" : -49.38933859999999
               }
            }
         },
         "place_id" : "ChIJ8Q8J_PXj3JQRR7crCbCDejw",
         "types" : [ "administrative_area_level_2", "political" ]
      },
      {
         "address_components" : [
            {
               "long_name" : "State of Paraná",
               "short_name" : "PR",
               "types" : [ "administrative_area_level_1", "political" ]
            },
            {
               "long_name" : "Brazil",
               "short_name" : "BR",
               "types" : [ "country", "political" ]
            }
         ],
         "formatted_address" : "State of Paraná, Brazil",
         "geometry" : {
            "bounds" : {
               "northeast" : {
                  "lat" : -22.5166644,
                  "lng" : -48.0235303
               },
               "southwest" : {
                  "lat" : -26.7172983,
                  "lng" : -54.6192979
               }
            },
            "location" : {
               "lat" : -25.2520888,
               "lng" : -52.0215415
            },
            "location_type" : "APPROXIMATE",
            "viewport" : {
               "northeast" : {
                  "lat" : -22.5166644,
                  "lng" : -48.0235303
               },
               "southwest" : {
                  "lat" : -26.7172983,
                  "lng" : -54.6192979
               }
            }
         },
         "place_id" : "ChIJnWK4MJQL25QRYfDOY1D9k-g",
         "types" : [ "administrative_area_level_1", "political" ]
      },
      {
         "address_components" : [
            {
               "long_name" : "Brazil",
               "short_name" : "BR",
               "types" : [ "country", "political" ]
            }
         ],
         "formatted_address" : "Brazil",
         "geometry" : {
            "bounds" : {
               "northeast" : {
                  "lat" : 5.2717863,
                  "lng" : -28.650543
               },
               "southwest" : {
                  "lat" : -34.0891,
                  "lng" : -73.9828169
               }
            },
            "location" : {
               "lat" : -14.235004,
               "lng" : -51.92528
            },
            "location_type" : "APPROXIMATE",
            "viewport" : {
               "northeast" : {
                  "lat" : 5.2717863,
                  "lng" : -28.650543
               },
               "southwest" : {
                  "lat" : -34.0891,
                  "lng" : -73.9828169
               }
            }
         },
         "place_id" : "ChIJzyjM68dZnAARYz4p8gYVWik",
         "types" : [ "country", "political" ]
      }
   ],
   "status" : "OK"
}
