{
   "plus_code" : {
      "compound_code" : "HPF2+CH Curitiba, State of Paraná, Brazil",
      "global_code" : "586GHPF2+CH"
   },
   "results" : [
      {
         "address_components" : [
            {
               "long_name" : "80",
               "short_name" : "80",
               "types" : [ "street_number" ]
            },
            {
               "long_name" : "Rua Jacarezinho",
               "short_name" : "R. Jacarezinho",
               "types" : [ "route" ]
            },
            {
               "long_name" : "Mercês",
               "short_name" : "Mercês",
               "types" : [ "political", "sublocality", "sublocality_level_1" ]
            },
            {
               "long_name" : "Curitiba",
               "short_name" : "Curitiba",
               "types" : [ "administrative_area_level_2", "political" ]
            },
            {
               "long_name" : "Paraná",
               "short_name" : "PR",
               "types" : [ "administrative_area_level_1", "political" ]
            },
            {
               "long_name" : "Brazil",
               "short_name" : "BR",
               "types" : [ "country", "political" ]
            },
            {
               "long_name" : "80710-150",
               "short_name" : "80710-150",
               "types" : [ "postal_code" ]
            }
         ],
         "formatted_address" : "R. Jacarezinho, 80 - Mercês, Curitiba - PR, 80710-150, Brazil",
         "geometry" : {
            "bounds" : {
               "northeast" : {
                  "lat" : -25.4259501,
                  "lng" : -49.29845270000001
               },
               "southwest" : {
                  "lat" : -25.4262393,
                  "lng" : -49.2988332
               }
            },
            "location" : {
               "lat" : -25.4261305,
               "lng" : -49.29860129999999
            },
            "location_type" : "ROOFTOP",
            "viewport" : {
               "northeast" : {
                  "lat" : -25.4247457197085,
                  "lng" : -49.29729396970851
               },
               "southwest" : {
                  "lat" : -25.4274436802915,
                  "lng" : -49.2999919302915
               }
            }
         },
         "place_id" : "ChIJmcprGuTj3JQR-ccs1EMb9PI",
         "types" : [ "premise" ]
      },
      {
         "address_components" : [
            {
               "long_name" : "1420",
               "short_name" : "1420",
               "types" : [ "street_number" ]
            },
            {
               "long_name" : "Avenida Cândido Hartmann",
               "short_name" : "Avenida Cândido Hartmann",
               "types" : [ "route" ]
            },
            {
               "long_name" : "Mercês",
               "short_name" : "Mercês",
               "types" : [ "political", "sublocality", "sublocality_level_1" ]
            },
            {
               "long_name" : "Curitiba",
               "short_name" : "Curitiba",
               "types" : [ "administrative_area_level_2", "political" ]
            },
            {
               "long_name" : "Paraná",
               "short_name" : "PR",
               "types" : [ "administrative_area_level_1", "political" ]
            },
            {
               "long_name" : "Brazil",
               "short_name" : "BR",
               "types" : [ "country", "political" ]
            },
            {
               "long_name" : "80710-570",
               "short_name" : "80710-570",
               "types" : [ "postal_code" ]
            }
         ],
         "formatted_address" : "Av. Cândido Hartmann, 1420 - Mercês, Curitiba - PR, 80710-570, Brazil",
         "geometry" : {
            "location" : {
               "lat" : -25.4264663,
               "lng" : -49.29897769999999
            },
            "location_type" : "ROOFTOP",
            "viewport" : {
               "northeast" : {
                  "lat" : -25.42511731970849,
                  "lng" : -49.2976287197085
               },
               "southwest" : {
                  "lat" : -25.4278152802915,
                  "lng" : -49.3003266802915
               }
            }
         },
         "place_id" : "ChIJWyX4IeTj3JQRcMSLbmc2eaA",
         "plus_code" : {
            "compound_code" : "HPF2+CC Curitiba, State of Paraná, Brazil",
            "global_code" : "586GHPF2+CC"
         },
         "types" : [ "street_address" ]
      },
      {
         "address_components" : [
            {
               "long_name" : "1420",
               "short_name" : "1420",
               "types" : [ "street_number" ]
            },
            {
               "long_name" : "Avenida Cândido Hartmann",
               "short_name" : "Avenida Cândido Hartmann",
               "types" : [ "route" ]
            },
            {
               "long_name" : "Mercês",
               "short_name" : "Mercês",
               "types" : [ "political", "sublocality", "sublocality_level_1" ]
            },
            {
               "long_name" : "Curitiba",
               "short_name" : "Curitiba",
               "types" : [ "administrative_area_level_2", "political" ]
            },
            {
               "long_name" : "Paraná",
               "short_name" : "PR",
               "types" : [ "administrative_area_level_1", "political" ]
            },
            {
               "long_name" : "Brazil",
               "short_name" : "BR",
               "types" : [ "country", "political" ]
            },
            {
               "long_name" : "80710-570",
               "short_name" : "80710-570",
               "types" : [ "postal_code" ]
            }
         ],
         "formatted_address" : "Av. Cândido Hartmann, 1420 - Mercês, Curitiba - PR, 80710-570, Brazil",
         "geometry" : {
            "location" : {
               "lat" : -25.4264663,
               "lng" : -49.29897769999999
            },
            "location_type" : "ROOFTOP",
            "viewport" : {
               "northeast" : {
                  "lat" : -25.42511731970849,
                  "lng" : -49.2976287197085
               },
               "southwest" : {
                  "lat" : -25.4278152802915,
                  "lng" : -49.3003266802915
               }
            }
         },
         "place_id" : "ChIJM6uRIeTj3JQRsgK-JGFjrc8",
         "plus_code" : {
            "compound_code" : "HPF2+CC Mercês - Matriz, Curitiba - State of Paraná, Brazil",
            "global_code" : "586GHPF2+CC"
         },
         "types" : [
            "establishment",
            "furniture_store",
            "home_goods_store",
            "point_of_interest",
            "storage",
            "store"
         ]
      },
      {
         "address_components" : [
            {
               "long_name" : "Cândido Hartmann, 1420 - Mercês",
               "short_name" : "Cândido Hartmann, 1420 - Mercês",
               "types" : [ "establishment", "point_of_interest", "transit_station" ]
            },
            {
               "long_name" : "Mercês",
               "short_name" : "Mercês",
               "types" : [ "political", "sublocality", "sublocality_level_1" ]
            },
            {
               "long_name" : "Curitiba",
               "short_name" : "Curitiba",
               "types" : [ "administrative_area_level_2", "political" ]
            },
            {
               "long_name" : "Paraná",
               "short_name" : "PR",
               "types" : [ "administrative_area_level_1", "political" ]
            },
            {
               "long_name" : "Brazil",
               "short_name" : "BR",
               "types" : [ "country", "political" ]
            },
            {
               "long_name" : "80710-150",
               "short_name" : "80710-150",
               "types" : [ "postal_code" ]
            }
         ],
         "formatted_address" : "Cândido Hartmann, 1420 - Mercês - Mercês, Curitiba - PR, 80710-150, Brazil",
         "geometry" : {
            "location" : {
               "lat" : -25.4264043,
               "lng" : -49.2992138
            },
            "location_type" : "GEOMETRIC_CENTER",
            "viewport" : {
               "northeast" : {
                  "lat" : -25.42505531970849,
                  "lng" : -49.2978648197085
               },
               "southwest" : {
                  "lat" : -25.4277532802915,
                  "lng" : -49.3005627802915
               }
            }
         },
         "place_id" : "ChIJPc6oH-Tj3JQRyjtdSYWhpS0",
         "plus_code" : {
            "compound_code" : "HPF2+C8 Curitiba, State of Paraná, Brazil",
            "global_code" : "586GHPF2+C8"
         },
         "types" : [ "establishment", "point_of_interest", "transit_station" ]
      },
      {
         "address_components" : [
            {
               "long_name" : "78",
               "short_name" : "78",
               "types" : [ "street_number" ]
            },
            {
               "long_name" : "Rua Jacarezinho",
               "short_name" : "R. Jacarezinho",
               "types" : [ "route" ]
            },
            {
               "long_name" : "Mercês",
               "short_name" : "Mercês",
               "types" : [ "political", "sublocality", "sublocality_level_1" ]
            },
            {
               "long_name" : "Curitiba",
               "short_name" : "Curitiba",
               "types" : [ "administrative_area_level_2", "political" ]
            },
            {
               "long_name" : "Paraná",
               "short_name" : "PR",
               "types" : [ "administrative_area_level_1", "political" ]
            },
            {
               "long_name" : "Brazil",
               "short_name" : "BR",
               "types" : [ "country", "political" ]
            },
            {
               "long_name" : "80710-150",
               "short_name" : "80710-150",
               "types" : [ "postal_code" ]
            }
         ],
         "formatted_address" : "R. Jacarezinho, 78 - Mercês, Curitiba - PR, 80710-150, Brazil",
         "geometry" : {
            "location" : {
               "lat" : -25.4258648,
               "lng" : -49.2986841
            },
            "location_type" : "RANGE_INTERPOLATED",
            "viewport" : {
               "northeast" : {
                  "lat" : -25.4245158197085,
                  "lng" : -49.2973351197085
               },
               "southwest" : {
                  "lat" : -25.4272137802915,
                  "lng" : -49.3000330802915
               }
            }
         },
         "place_id" : "EjNSLiBKYWNhcmV6aW5obywgNzggLSBNZXJjw6pzLCBDdXJpdGliYSAtIFBSLCBCcmF6aWwiGhIYChQKEgnljRwb5OPclBEp8JflvqcQ9BBO",
         "types" : [ "street_address" ]
      },
      {
         "address_components" : [
            {
               "long_name" : "107-35",
               "short_name" : "107-35",
               "types" : [ "street_number" ]
            },
            {
               "long_name" : "Rua Jacarezinho",
               "short_name" : "R. Jacarezinho",
               "types" : [ "route" ]
            },
            {
               "long_name" : "Mercês",
               "short_name" : "Mercês",
               "types" : [ "political", "sublocality", "sublocality_level_1" ]
            },
            {
               "long_name" : "Curitiba",
               "short_name" : "Curitiba",
               "types" : [ "administrative_area_level_2", "political" ]
            },
            {
               "long_name" : "Paraná",
               "short_name" : "PR",
               "types" : [ "administrative_area_level_1", "political" ]
            },
            {
               "long_name" : "Brazil",
               "short_name" : "BR",
               "types" : [ "country", "political" ]
            },
            {
               "long_name" : "80710-150",
               "short_name" : "80710-150",
               "types" : [ "postal_code" ]
            }
         ],
         "formatted_address" : "R. Jacarezinho, 107-35 - Mercês, Curitiba - PR, 80710-150, Brazil",
         "geometry" : {
            "bounds" : {
               "northeast" : {
                  "lat" : -25.4258468,
                  "lng" : -49.2985748
               },
               "southwest" : {
                  "lat" : -25.4259587,
                  "lng" : -49.2992025
               }
            },
            "location" : {
               "lat" : -25.4258987,
               "lng" : -49.29888949999999
            },
            "location_type" : "GEOMETRIC_CENTER",
            "viewport" : {
               "northeast" : {
                  "lat" : -25.4245537697085,
                  "lng" : -49.29753966970851
               },
               "southwest" : {
                  "lat" : -25.4272517302915,
                  "lng" : -49.30023763029151
               }
            }
         },
         "place_id" : "ChIJ5Y0cG-Tj3JQRKPCX5b6nEPQ",
         "types" : [ "route" ]
      },
      {
         "address_components" : [
            {
               "long_name" : "80710",
               "short_name" : "80710",
               "types" : [ "postal_code", "postal_code_prefix" ]
            },
            {
               "long_name" : "Matriz",
               "short_name" : "Matriz",
               "types" : [ "administrative_area_level_4", "political" ]
            },
            {
               "long_name" : "Curitiba",
               "short_name" : "Curitiba",
               "types" : [ "administrative_area_level_2", "political" ]
            },
            {
               "long_name" : "State of Paraná",
               "short_name" : "PR",
               "types" : [ "administrative_area_level_1", "political" ]
            },
            {
               "long_name" : "Brazil",
               "short_name" : "BR",
               "types" : [ "country", "political" ]
            }
         ],
         "formatted_address" : "Matriz, Curitiba - State of Paraná, 80710, Brazil",
         "geometry" : {
            "bounds" : {
               "northeast" : {
                  "lat" : -25.4166281,
                  "lng" : -49.2898143
               },
               "southwest" : {
                  "lat" : -25.4346986,
                  "lng" : -49.30936690000001
               }
            },
            "location" : {
               "lat" : -25.4237477,
               "lng" : -49.3018896
            },
            "location_type" : "APPROXIMATE",
            "viewport" : {
               "northeast" : {
                  "lat" : -25.4166281,
                  "lng" : -49.2898143
               },
               "southwest" : {
                  "lat" : -25.4346986,
                  "lng" : -49.30936690000001
               }
            }
         },
         "place_id" : "ChIJVyHAq-bj3JQR4KMlta8I_50",
         "types" : [ "postal_code", "postal_code_prefix" ]
      },
      {
         "address_components" : [
            {
               "long_name" : "Mercês",
               "short_name" : "Mercês",
               "types" : [ "political", "sublocality", "sublocality_level_1" ]
            },
            {
               "long_name" : "Curitiba",
               "short_name" : "Curitiba",
               "types" : [ "administrative_area_level_2", "political" ]
            },
            {
               "long_name" : "State of Paraná",
               "short_name" : "PR",
               "types" : [ "administrative_area_level_1", "political" ]
            },
            {
               "long_name" : "Brazil",
               "short_name" : "BR",
               "types" : [ "country", "political" ]
            }
         ],
         "formatted_address" : "Mercês, Curitiba - State of Paraná, Brazil",
         "geometry" : {
            "bounds" : {
               "northeast" : {
                  "lat" : -25.4142271,
                  "lng" : -49.2791773
               },
               "southwest" : {
                  "lat" : -25.4306924,
                  "lng" : -49.30881369999999
               }
            },
            "location" : {
               "lat" : -25.4220894,
               "lng" : -49.2918813
            },
            "location_type" : "APPROXIMATE",
            "viewport" : {
               "northeast" : {
                  "lat" : -25.4142271,
                  "lng" : -49.2791773
               },
               "southwest" : {
                  "lat" : -25.4306924,
                  "lng" : -49.30881369999999
               }
            }
         },
         "place_id" : "ChIJlVV3tfzj3JQRQZdn8x7IoIw",
         "types" : [ "political", "sublocality", "sublocality_level_1" ]
      },
      {
         "address_components" : [
            {
               "long_name" : "Matriz",
               "short_name" : "Matriz",
               "types" : [ "administrative_area_level_4", "political" ]
            },
            {
               "long_name" : "Curitiba",
               "short_name" : "Curitiba",
               "types" : [ "administrative_area_level_2", "political" ]
            },
            {
               "long_name" : "State of Paraná",
               "short_name" : "PR",
               "types" : [ "administrative_area_level_1", "political" ]
            },
            {
               "long_name" : "Brazil",
               "short_name" : "BR",
               "types" : [ "country", "political" ]
            }
         ],
         "formatted_address" : "Matriz, Curitiba - State of Paraná, Brazil",
         "geometry" : {
            "bounds" : {
               "northeast" : {
                  "lat" : -25.3928639,
                  "lng" : -49.2184679
               },
               "southwest" : {
                  "lat" : -25.4688678,
                  "lng" : -49.3192934
               }
            },
            "location" : {
               "lat" : -25.4217847,
               "lng" : -49.2740045
            },
            "location_type" : "APPROXIMATE",
            "viewport" : {
               "northeast" : {
                  "lat" : -25.3928639,
                  "lng" : -49.2184679
               },
               "southwest" : {
                  "lat" : -25.4688678,
                  "lng" : -49.3192934
               }
            }
         },
         "place_id" : "ChIJSdL-QBTk3JQRTa4Zsr5CKw0",
         "types" : [ "administrative_area_level_4", "political" ]
      },
      {
         "address_components" : [
            {
               "long_name" : "Curitiba",
               "short_name" : "Curitiba",
               "types" : [ "locality", "political" ]
            },
            {
               "long_name" : "Curitiba",
               "short_name" : "Curitiba",
               "types" : [ "administrative_area_level_2", "political" ]
            },
            {
               "long_name" : "State of Paraná",
               "short_name" : "PR",
               "types" : [ "administrative_area_level_1", "political" ]
            },
            {
               "long_name" : "Brazil",
               "short_name" : "BR",
               "types" : [ "country", "political" ]
            }
         ],
         "formatted_address" : "Curitiba, State of Paraná, Brazil",
         "geometry" : {
            "bounds" : {
               "northeast" : {
                  "lat" : -25.346995,
                  "lng" : -49.1897635
               },
               "southwest" : {
                  "lat" : -25.6432382,
                  "lng" : -49.38983289999999
               }
            },
            "location" : {
               "lat" : -25.4289541,
               "lng" : -49.267137
            },
            "location_type" : "APPROXIMATE",
            "viewport" : {
               "northeast" : {
                  "lat" : -25.346995,
                  "lng" : -49.1897635
               },
               "southwest" : {
                  "lat" : -25.6432382,
                  "lng" : -49.38983289999999
               }
            }
         },
         "place_id" : "ChIJ3bPNUVPj3JQRCejLuqVrL20",
         "types" : [ "locality", "political" ]
      },
      {
         "address_components" : [
            {
               "long_name" : "Curitiba",
               "short_name" : "Curitiba",
               "types" : [ "administrative_area_level_2", "political" ]
            },
            {
               "long_name" : "State of Paraná",
               "short_name" : "PR",
               "types" : [ "administrative_area_level_1", "political" ]
            },
            {
               "long_name" : "Brazil",
               "short_name" : "BR",
               "types" : [ "country", "political" ]
            }
         ],
         "formatted_address" : "Curitiba - State of Paraná, Brazil",
         "geometry" : {
            "bounds" : {
               "northeast" : {
                  "lat" : -25.346736,
                  "lng" : -49.18522489999999
               },
               "southwest" : {
                  "lat" : -25.6453862,
                  "lng" : -49.38933859999999
               }
            },
            "location" : {
               "lat" : -25.4808762,
               "lng" : -49.3044253
            },
            "location_type" : "APPROXIMATE",
            "viewport" : {
               "northeast" : {
                  "lat" : -25.346736,
                  "lng" : -49.18522489999999
               },
               "southwest" : {
                  "lat" : -25.6453862,
                  "lng" : -49.38933859999999
               }
            }
         },
         "place_id" : "ChIJ8Q8J_PXj3JQRR7crCbCDejw",
         "types" : [ "administrative_area_level_2", "political" ]
      },
      {
         "address_components" : [
            {
               "long_name" : "State of Paraná",
               "short_name" : "PR",
               "types" : [ "administrative_area_level_1", "political" ]
            },
            {
               "long_name" : "Brazil",
               "short_name" : "BR",
               "types" : [ "country", "political" ]
            }
         ],
         "formatted_address" : "State of Paraná, Brazil",
         "geometry" : {
            "bounds" : {
               "northeast" : {
                  "lat" : -22.5166644,
                  "lng" : -48.0235303
               },
               "southwest" : {
                  "lat" : -26.7172983,
                  "lng" : -54.6192979
               }
            },
            "location" : {
               "lat" : -25.2520888,
               "lng" : -52.0215415
            },
            "location_type" : "APPROXIMATE",
            "viewport" : {
               "northeast" : {
                  "lat" : -22.5166644,
                  "lng" : -48.0235303
               },
               "southwest" : {
                  "lat" : -26.7172983,
                  "lng" : -54.6192979
               }
            }
         },
         "place_id" : "ChIJnWK4MJQL25QRYfDOY1D9k-g",
         "types" : [ "administrative_area_level_1", "political" ]
      },
      {
         "address_components" : [
            {
               "long_name" : "Brazil",
               "short_name" : "BR",
               "types" : [ "country", "political" ]
            }
         ],
         "formatted_address" : "Brazil",
         "geometry" : {
            "bounds" : {
               "northeast" : {
                  "lat" : 5.2717863,
                  "lng" : -28.650543
               },
               "southwest" : {
                  "lat" : -34.0891,
                  "lng" : -73.9828169
               }
            },
            "location" : {
               "lat" : -14.235004,
               "lng" : -51.92528
            },
            "location_type" : "APPROXIMATE",
            "viewport" : {
               "northeast" : {
                  "lat" : 5.2717863,
                  "lng" : -28.650543
               },
               "southwest" : {
                  "lat" : -34.0891,
                  "lng" : -73.9828169
               }
            }
         },
         "place_id" : "ChIJzyjM68dZnAARYz4p8gYVWik",
         "types" : [ "country", "political" ]
      }
   ],
   "status" : "OK"
}
