{
   "plus_code" : {
      "compound_code" : "HPCG+6F Curitiba, State of Paraná, Brazil",
      "global_code" : "586GHPCG+6F"
   },
   "results" : [
      {
         "address_components" : [
            {
               "long_name" : "202",
               "short_name" : "202",
               "types" : [ "street_number" ]
            },
            {
               "long_name" : "Rua Saldanha Marinho",
               "short_name" : "R. Saldanha Marinho",
               "types" : [ "route" ]
            },
            {
               "long_name" : "Centro",
               "short_name" : "Centro",
               "types" : [ "political", "sublocality", "sublocality_level_1" ]
            },
            {
               "long_name" : "Curitiba",
               "short_name" : "Curitiba",
               "types" : [ "administrative_area_level_2", "political" ]
            },
            {
               "long_name" : "Paraná",
               "short_name" : "PR",
               "types" : [ "administrative_area_level_1", "political" ]
            },
            {
               "long_name" : "Brazil",
               "short_name" : "BR",
               "types" : [ "country", "political" ]
            },
            {
               "long_name" : "80020-150",
               "short_name" : "80020-150",
               "types" : [ "postal_code" ]
            }
         ],
         "formatted_address" : "R. Saldanha Marinho, 202 - Centro, Curitiba - PR, 80020-150, Brazil",
         "geometry" : {
            "location" : {
               "lat" : -25.4294436,
               "lng" : -49.2738781
            },
            "location_type" : "ROOFTOP",
            "viewport" : {
               "northeast" : {
                  "lat" : -25.4280946197085,
                  "lng" : -49.27252911970849
               },
               "southwest" : {
                  "lat" : -25.4307925802915,
                  "lng" : -49.27522708029149
               }
            }
         },
         "place_id" : "ChIJ79EwghLk3JQRwiTptk8vpHY",
         "plus_code" : {
            "compound_code" : "HPCG+6C Curitiba, State of Paraná, Brazil",
            "global_code" : "586GHPCG+6C"
         },
         "types" : [ "street_address" ]
      },
      {
         "address_components" : [
            {
               "long_name" : "214",
               "short_name" : "214",
               "types" : [ "street_number" ]
            },
            {
               "long_name" : "Rua Saldanha Marinho",
               "short_name" : "R. Saldanha Marinho",
               "types" : [ "route" ]
            },
            {
               "long_name" : "Centro",
               "short_name" : "Centro",
               "types" : [ "political", "sublocality", "sublocality_level_1" ]
            },
            {
               "long_name" : "Curitiba",
               "short_name" : "Curitiba",
               "types" : [ "administrative_area_level_2", "political" ]
            },
            {
               "long_name" : "Paraná",
               "short_name" : "PR",
               "types" : [ "administrative_area_level_1", "political" ]
            },
            {
               "long_name" : "Brazil",
               "short_name" : "BR",
               "types" : [ "country", "political" ]
            },
            {
               "long_name" : "80410-150",
               "short_name" : "80410-150",
               "types" : [ "postal_code" ]
            }
         ],
         "formatted_address" : "R. Saldanha Marinho, 214 - Centro, Curitiba - PR, 80410-150, Brazil",
         "geometry" : {
            "location" : {
               "lat" : -25.4294659,
               "lng" : -49.2739625
            },
            "location_type" : "ROOFTOP",
            "viewport" : {
               "northeast" : {
                  "lat" : -25.4281169197085,
                  "lng" : -49.27261351970849
               },
               "southwest" : {
                  "lat" : -25.4308148802915,
                  "lng" : -49.27531148029149
               }
            }
         },
         "place_id" : "ChIJtbUZghLk3JQRq2hYAO6Ynu4",
         "plus_code" : {
            "compound_code" : "HPCG+6C Centro - Matriz, Curitiba - State of Paraná, Brazil",
            "global_code" : "586GHPCG+6C"
         },
         "types" : [ "establishment", "health", "point_of_interest", "spa" ]
      },
      {
         "address_components" : [
            {
               "long_name" : "926",
               "short_name" : "926",
               "types" : [ "street_number" ]
            },
            {
               "long_name" : "Alameda Doutor Muricy",
               "short_name" : "Alameda Dr. Muricy",
               "types" : [ "route" ]
            },
            {
               "long_name" : "Centro",
               "short_name" : "Centro",
               "types" : [ "political", "sublocality", "sublocality_level_1" ]
            },
            {
               "long_name" : "Curitiba",
               "short_name" : "Curitiba",
               "types" : [ "administrative_area_level_2", "political" ]
            },
            {
               "long_name" : "Paraná",
               "short_name" : "PR",
               "types" : [ "administrative_area_level_1", "political" ]
            },
            {
               "long_name" : "Brazil",
               "short_name" : "BR",
               "types" : [ "country", "political" ]
            },
            {
               "long_name" : "80020-040",
               "short_name" : "80020-040",
               "types" : [ "postal_code" ]
            }
         ],
         "formatted_address" : "Alameda Dr. Muricy, 926 - Centro, Curitiba - PR, 80020-040, Brazil",
         "geometry" : {
            "location" : {
               "lat" : -25.4294088,
               "lng" : -49.273552
            },
            "location_type" : "ROOFTOP",
            "viewport" : {
               "northeast" : {
                  "lat" : -25.42805981970849,
                  "lng" : -49.27220301970849
               },
               "southwest" : {
                  "lat" : -25.4307577802915,
                  "lng" : -49.27490098029149
               }
            }
         },
         "place_id" : "ChIJPfNYLmzk3JQRHhkcl_YlLFQ",
         "plus_code" : {
            "compound_code" : "HPCG+6H Curitiba, State of Paraná, Brazil",
            "global_code" : "586GHPCG+6H"
         },
         "types" : [ "establishment", "premise" ]
      },
      {
         "address_components" : [
            {
               "long_name" : "217",
               "short_name" : "217",
               "types" : [ "street_number" ]
            },
            {
               "long_name" : "Rua Saldanha Marinho",
               "short_name" : "R. Saldanha Marinho",
               "types" : [ "route" ]
            },
            {
               "long_name" : "Centro",
               "short_name" : "Centro",
               "types" : [ "political", "sublocality", "sublocality_level_1" ]
            },
            {
               "long_name" : "Curitiba",
               "short_name" : "Curitiba",
               "types" : [ "administrative_area_level_2", "political" ]
            },
            {
               "long_name" : "Paraná",
               "short_name" : "PR",
               "types" : [ "administrative_area_level_1", "political" ]
            },
            {
               "long_name" : "Brazil",
               "short_name" : "BR",
               "types" : [ "country", "political" ]
            },
            {
               "long_name" : "82860-140",
               "short_name" : "82860-140",
               "types" : [ "postal_code" ]
            }
         ],
         "formatted_address" : "R. Saldanha Marinho, 217 - Centro, Curitiba - PR, 82860-140, Brazil",
         "geometry" : {
            "location" : {
               "lat" : -25.4294681,
               "lng" : -49.2738539
            },
            "location_type" : "RANGE_INTERPOLATED",
            "viewport" : {
               "northeast" : {
                  "lat" : -25.4281191197085,
                  "lng" : -49.2725049197085
               },
               "southwest" : {
                  "lat" : -25.4308170802915,
                  "lng" : -49.2752028802915
               }
            }
         },
         "place_id" : "EjhSLiBTYWxkYW5oYSBNYXJpbmhvLCAyMTcgLSBDZW50cm8sIEN1cml0aWJhIC0gUFIsIEJyYXppbCIbEhkKFAoSCb8gE4IS5NyUEWOj7_fmxaAwENkB",
         "types" : [ "street_address" ]
      },
      {
         "address_components" : [
            {
               "long_name" : "202-248",
               "short_name" : "202-248",
               "types" : [ "street_number" ]
            },
            {
               "long_name" : "Rua Saldanha Marinho",
               "short_name" : "R. Saldanha Marinho",
               "types" : [ "route" ]
            },
            {
               "long_name" : "Centro",
               "short_name" : "Centro",
               "types" : [ "political", "sublocality", "sublocality_level_1" ]
            },
            {
               "long_name" : "Curitiba",
               "short_name" : "Curitiba",
               "types" : [ "administrative_area_level_2", "political" ]
            },
            {
               "long_name" : "Paraná",
               "short_name" : "PR",
               "types" : [ "administrative_area_level_1", "political" ]
            },
            {
               "long_name" : "Brazil",
               "short_name" : "BR",
               "types" : [ "country", "political" ]
            },
            {
               "long_name" : "82860-140",
               "short_name" : "82860-140",
               "types" : [ "postal_code" ]
            }
         ],
         "formatted_address" : "R. Saldanha Marinho, 202-248 - Centro, Curitiba - PR, 82860-140, Brazil",
         "geometry" : {
            "bounds" : {
               "northeast" : {
                  "lat" : -25.4293977,
                  "lng" : -49.27370519999999
               },
               "southwest" : {
                  "lat" : -25.4295894,
                  "lng" : -49.2742121
               }
            },
            "location" : {
               "lat" : -25.4295046,
               "lng" : -49.2739532
            },
            "location_type" : "GEOMETRIC_CENTER",
            "viewport" : {
               "northeast" : {
                  "lat" : -25.4281445697085,
                  "lng" : -49.2726096697085
               },
               "southwest" : {
                  "lat" : -25.4308425302915,
                  "lng" : -49.2753076302915
               }
            }
         },
         "place_id" : "ChIJvyATghLk3JQRYqPv9-bFoDA",
         "types" : [ "route" ]
      },
      {
         "address_components" : [
            {
               "long_name" : "80410-150",
               "short_name" : "80410-150",
               "types" : [ "postal_code" ]
            },
            {
               "long_name" : "Centro",
               "short_name" : "Centro",
               "types" : [ "political", "sublocality", "sublocality_level_1" ]
            },
            {
               "long_name" : "Curitiba",
               "short_name" : "Curitiba",
               "types" : [ "administrative_area_level_2", "political" ]
            },
            {
               "long_name" : "State of Paraná",
               "short_name" : "PR",
               "types" : [ "administrative_area_level_1", "political" ]
            },
            {
               "long_name" : "Brazil",
               "short_name" : "BR",
               "types" : [ "country", "political" ]
            }
         ],
         "formatted_address" : "Centro, Curitiba - State of Paraná, 80410-150, Brazil",
         "geometry" : {
            "bounds" : {
               "northeast" : {
                  "lat" : -25.4285908,
                  "lng" : -49.2716967
               },
               "southwest" : {
                  "lat" : -25.4308802,
                  "lng" : -49.27753329999999
               }
            },
            "location" : {
               "lat" : -25.4297414,
               "lng" : -49.2744797
            },
            "location_type" : "APPROXIMATE",
            "viewport" : {
               "northeast" : {
                  "lat" : -25.4283865197085,
                  "lng" : -49.2716967
               },
               "southwest" : {
                  "lat" : -25.4310844802915,
                  "lng" : -49.27753329999999
               }
            }
         },
         "place_id" : "ChIJ9QgScw3k3JQRmhZItTXXvOg",
         "types" : [ "postal_code" ]
      },
      {
         "address_components" : [
            {
               "long_name" : "Matriz",
               "short_name" : "Matriz",
               "types" : [ "administrative_area_level_4", "political" ]
            },
            {
               "long_name" : "Curitiba",
               "short_name" : "Curitiba",
               "types" : [ "administrative_area_level_2", "political" ]
            },
            {
               "long_name" : "State of Paraná",
               "short_name" : "PR",
               "types" : [ "administrative_area_level_1", "political" ]
            },
            {
               "long_name" : "Brazil",
               "short_name" : "BR",
               "types" : [ "country", "political" ]
            },
            {
               "long_name" : "82590-300",
               "short_name" : "82590-300",
               "types" : [ "postal_code" ]
            }
         ],
         "formatted_address" : "Matriz, Curitiba - State of Paraná, 80020, Brazil",
         "geometry" : {
            "bounds" : {
               "northeast" : {
                  "lat" : -25.4179129,
                  "lng" : -49.2650325
               },
               "southwest" : {
                  "lat" : -25.4348716,
                  "lng" : -49.2765186
               }
            },
            "location" : {
               "lat" : -25.4282779,
               "lng" : -49.2714702
            },
            "location_type" : "APPROXIMATE",
            "viewport" : {
               "northeast" : {
                  "lat" : -25.4179129,
                  "lng" : -49.2650325
               },
               "southwest" : {
                  "lat" : -25.4348716,
                  "lng" : -49.2765186
               }
            }
         },
         "place_id" : "ChIJ43iZxRPk3JQRgNIqn7bxZfY",
         "types" : [ "postal_code", "postal_code_prefix" ]
      },
      {
         "address_components" : [
            {
               "long_name" : "Centro",
               "short_name" : "Centro",
               "types" : [ "political", "sublocality", "sublocality_level_1" ]
            },
            {
               "long_name" : "Curitiba",
               "short_name" : "Curitiba",
               "types" : [ "administrative_area_level_2", "political" ]
            },
            {
               "long_name" : "State of Paraná",
               "short_name" : "PR",
               "types" : [ "administrative_area_level_1", "political" ]
            },
            {
               "long_name" : "Brazil",
               "short_name" : "BR",
               "types" : [ "country", "political" ]
            }
         ],
         "formatted_address" : "Centro, Curitiba - State of Paraná, Brazil",
         "geometry" : {
            "bounds" : {
               "northeast" : {
                  "lat" : -25.422564,
                  "lng" : -49.2557553
               },
               "southwest" : {
                  "lat" : -25.4417927,
                  "lng" : -49.28602679999999
               }
            },
            "location" : {
               "lat" : -25.4351674,
               "lng" : -49.2754909
            },
            "location_type" : "APPROXIMATE",
            "viewport" : {
               "northeast" : {
                  "lat" : -25.422564,
                  "lng" : -49.2557553
               },
               "southwest" : {
                  "lat" : -25.4417927,
                  "lng" : -49.28602679999999
               }
            }
         },
         "place_id" : "ChIJG2tsRGzk3JQRexQH3bDlDQ0",
         "types" : [ "political", "sublocality", "sublocality_level_1" ]
      },
      {
         "address_components" : [
            {
               "long_name" : "Matriz",
               "short_name" : "Matriz",
               "types" : [ "administrative_area_level_4", "political" ]
            },
            {
               "long_name" : "Curitiba",
               "short_name" : "Curitiba",
               "types" : [ "administrative_area_level_2", "political" ]
            },
            {
               "long_name" : "State of Paraná",
               "short_name" : "PR",
               "types" : [ "administrative_area_level_1", "political" ]
            },
            {
               "long_name" : "Brazil",
               "short_name" : "BR",
               "types" : [ "country", "political" ]
            }
         ],
         "formatted_address" : "Matriz, Curitiba - State of Paraná, Brazil",
         "geometry" : {
            "bounds" : {
               "northeast" : {
                  "lat" : -25.3928639,
                  "lng" : -49.2184679
               },
               "southwest" : {
                  "lat" : -25.4688678,
                  "lng" : -49.3192934
               }
            },
            "location" : {
               "lat" : -25.4217847,
               "lng" : -49.2740045
            },
            "location_type" : "APPROXIMATE",
            "viewport" : {
               "northeast" : {
                  "lat" : -25.3928639,
                  "lng" : -49.2184679
               },
               "southwest" : {
                  "lat" : -25.4688678,
                  "lng" : -49.3192934
               }
            }
         },
         "place_id" : "ChIJSdL-QBTk3JQRTa4Zsr5CKw0",
         "types" : [ "administrative_area_level_4", "political" ]
      },
      {
         "address_components" : [
            {
               "long_name" : "Curitiba",
               "short_name" : "Curitiba",
               "types" : [ "locality", "political" ]
            },
            {
               "long_name" : "Curitiba",
               "short_name" : "Curitiba",
               "types" : [ "administrative_area_level_2", "political" ]
            },
            {
               "long_name" : "State of Paraná",
               "short_name" : "PR",
               "types" : [ "administrative_area_level_1", "political" ]
            },
            {
               "long_name" : "Brazil",
               "short_name" : "BR",
               "types" : [ "country", "political" ]
            }
         ],
         "formatted_address" : "Curitiba, State of Paraná, Brazil",
         "geometry" : {
            "bounds" : {
               "northeast" : {
                  "lat" : -25.346995,
                  "lng" : -49.1897635
               },
               "southwest" : {
                  "lat" : -25.6432382,
                  "lng" : -49.38983289999999
               }
            },
            "location" : {
               "lat" : -25.4289541,
               "lng" : -49.267137
            },
            "location_type" : "APPROXIMATE",
            "viewport" : {
               "northeast" : {
                  "lat" : -25.346995,
                  "lng" : -49.1897635
               },
               "southwest" : {
                  "lat" : -25.6432382,
                  "lng" : -49.38983289999999
               }
            }
         },
         "place_id" : "ChIJ3bPNUVPj3JQRCejLuqVrL20",
         "types" : [ "locality", "political" ]
      },
      {
         "address_components" : [
            {
               "long_name" : "Curitiba",
               "short_name" : "Curitiba",
               "types" : [ "administrative_area_level_2", "political" ]
            },
            {
               "long_name" : "State of Paraná",
               "short_name" : "PR",
               "types" : [ "administrative_area_level_1", "political" ]
            },
            {
               "long_name" : "Brazil",
               "short_name" : "BR",
               "types" : [ "country", "political" ]
            }
         ],
         "formatted_address" : "Curitiba - State of Paraná, Brazil",
         "geometry" : {
            "bounds" : {
               "northeast" : {
                  "lat" : -25.346736,
                  "lng" : -49.18522489999999
               },
               "southwest" : {
                  "lat" : -25.6453862,
                  "lng" : -49.38933859999999
               }
            },
            "location" : {
               "lat" : -25.4808762,
               "lng" : -49.3044253
            },
            "location_type" : "APPROXIMATE",
            "viewport" : {
               "northeast" : {
                  "lat" : -25.346736,
                  "lng" : -49.18522489999999
               },
               "southwest" : {
                  "lat" : -25.6453862,
                  "lng" : -49.38933859999999
               }
            }
         },
         "place_id" : "ChIJ8Q8J_PXj3JQRR7crCbCDejw",
         "types" : [ "administrative_area_level_2", "political" ]
      },
      {
         "address_components" : [
            {
               "long_name" : "State of Paraná",
               "short_name" : "PR",
               "types" : [ "administrative_area_level_1", "political" ]
            },
            {
               "long_name" : "Brazil",
               "short_name" : "BR",
               "types" : [ "country", "political" ]
            }
         ],
         "formatted_address" : "State of Paraná, Brazil",
         "geometry" : {
            "bounds" : {
               "northeast" : {
                  "lat" : -22.5166644,
                  "lng" : -48.0235303
               },
               "southwest" : {
                  "lat" : -26.7172983,
                  "lng" : -54.6192979
               }
            },
            "location" : {
               "lat" : -25.2520888,
               "lng" : -52.0215415
            },
            "location_type" : "APPROXIMATE",
            "viewport" : {
               "northeast" : {
                  "lat" : -22.5166644,
                  "lng" : -48.0235303
               },
               "southwest" : {
                  "lat" : -26.7172983,
                  "lng" : -54.6192979
               }
            }
         },
         "place_id" : "ChIJnWK4MJQL25QRYfDOY1D9k-g",
         "types" : [ "administrative_area_level_1", "political" ]
      },
      {
         "address_components" : [
            {
               "long_name" : "Brazil",
               "short_name" : "BR",
               "types" : [ "country", "political" ]
            }
         ],
         "formatted_address" : "Brazil",
         "geometry" : {
            "bounds" : {
               "northeast" : {
                  "lat" : 5.2717863,
                  "lng" : -28.650543
               },
               "southwest" : {
                  "lat" : -34.0891,
                  "lng" : -73.9828169
               }
            },
            "location" : {
               "lat" : -14.235004,
               "lng" : -51.92528
            },
            "location_type" : "APPROXIMATE",
            "viewport" : {
               "northeast" : {
                  "lat" : 5.2717863,
                  "lng" : -28.650543
               },
               "southwest" : {
                  "lat" : -34.0891,
                  "lng" : -73.9828169
               }
            }
         },
         "place_id" : "ChIJzyjM68dZnAARYz4p8gYVWik",
         "types" : [ "country", "political" ]
      }
   ],
   "status" : "OK"
}
