{
   "plus_code" : {
      "compound_code" : "JP6X+VQ Curitiba, State of Paraná, Brazil",
      "global_code" : "586GJP6X+VQ"
   },
   "results" : [
      {
         "address_components" : [
            {
               "long_name" : "125",
               "short_name" : "125",
               "types" : [ "street_number" ]
            },
            {
               "long_name" : "Rua Francisco Prestes Maia",
               "short_name" : "R. Francisco Prestes Maia",
               "types" : [ "route" ]
            },
            {
               "long_name" : "Boa Vista",
               "short_name" : "Boa Vista",
               "types" : [ "political", "sublocality", "sublocality_level_1" ]
            },
            {
               "long_name" : "Curitiba",
               "short_name" : "Curitiba",
               "types" : [ "administrative_area_level_2", "political" ]
            },
            {
               "long_name" : "Paraná",
               "short_name" : "PR",
               "types" : [ "administrative_area_level_1", "political" ]
            },
            {
               "long_name" : "Brazil",
               "short_name" : "BR",
               "types" : [ "country", "political" ]
            },
            {
               "long_name" : "82560-010",
               "short_name" : "82560-010",
               "types" : [ "postal_code" ]
            }
         ],
         "formatted_address" : "R. Francisco Prestes Maia, 125 - Boa Vista, Curitiba - PR, 82560-010, Brazil",
         "geometry" : {
            "location" : {
               "lat" : -25.387811,
               "lng" : -49.25047000000001
            },
            "location_type" : "ROOFTOP",
            "viewport" : {
               "northeast" : {
                  "lat" : -25.3864620197085,
                  "lng" : -49.24912101970851
               },
               "southwest" : {
                  "lat" : -25.3891599802915,
                  "lng" : -49.25181898029151
               }
            }
         },
         "place_id" : "ChIJR5CjRYzm3JQRKk2FSAjW8m0",
         "plus_code" : {
            "compound_code" : "JP6X+VR Curitiba, State of Paraná, Brazil",
            "global_code" : "586GJP6X+VR"
         },
         "types" : [ "street_address" ]
      },
      {
         "address_components" : [
            {
               "long_name" : "1122",
               "short_name" : "1122",
               "types" : [ "street_number" ]
            },
            {
               "long_name" : "Rua Carlota Straube de Araújo",
               "short_name" : "R. Carlota Straube de Araújo",
               "types" : [ "route" ]
            },
            {
               "long_name" : "Boa Vista",
               "short_name" : "Boa Vista",
               "types" : [ "political", "sublocality", "sublocality_level_1" ]
            },
            {
               "long_name" : "Curitiba",
               "short_name" : "Curitiba",
               "types" : [ "administrative_area_level_2", "political" ]
            },
            {
               "long_name" : "Paraná",
               "short_name" : "PR",
               "types" : [ "administrative_area_level_1", "political" ]
            },
            {
               "long_name" : "Brazil",
               "short_name" : "BR",
               "types" : [ "country", "political" ]
            },
            {
               "long_name" : "82540-220",
               "short_name" : "82540-220",
               "types" : [ "postal_code" ]
            }
         ],
         "formatted_address" : "R. Carlota Straube de Araújo, 1122 - Boa Vista, Curitiba - PR, 82540-220, Brazil",
         "geometry" : {
            "bounds" : {
               "northeast" : {
                  "lat" : -25.3878164,
                  "lng" : -49.25044750000001
               },
               "southwest" : {
                  "lat" : -25.3879607,
                  "lng" : -49.250584
               }
            },
            "location" : {
               "lat" : -25.3878929,
               "lng" : -49.2505068
            },
            "location_type" : "ROOFTOP",
            "viewport" : {
               "northeast" : {
                  "lat" : -25.3865395697085,
                  "lng" : -49.2491667697085
               },
               "southwest" : {
                  "lat" : -25.3892375302915,
                  "lng" : -49.2518647302915
               }
            }
         },
         "place_id" : "ChIJbVLsRYzm3JQRq-yzxim-oro",
         "types" : [ "premise" ]
      },
      {
         "address_components" : [
            {
               "long_name" : "1083",
               "short_name" : "1083",
               "types" : [ "street_number" ]
            },
            {
               "long_name" : "Rua Carlota Straube de Araújo",
               "short_name" : "R. Carlota Straube de Araújo",
               "types" : [ "route" ]
            },
            {
               "long_name" : "Boa Vista",
               "short_name" : "Boa Vista",
               "types" : [ "political", "sublocality", "sublocality_level_1" ]
            },
            {
               "long_name" : "Curitiba",
               "short_name" : "Curitiba",
               "types" : [ "administrative_area_level_2", "political" ]
            },
            {
               "long_name" : "Paraná",
               "short_name" : "PR",
               "types" : [ "administrative_area_level_1", "political" ]
            },
            {
               "long_name" : "Brazil",
               "short_name" : "BR",
               "types" : [ "country", "political" ]
            },
            {
               "long_name" : "82560-330",
               "short_name" : "82560-330",
               "types" : [ "postal_code" ]
            }
         ],
         "formatted_address" : "R. Carlota Straube de Araújo, 1083 - Boa Vista, Curitiba - PR, 82560-330, Brazil",
         "geometry" : {
            "location" : {
               "lat" : -25.3878435,
               "lng" : -49.25083610000001
            },
            "location_type" : "ROOFTOP",
            "viewport" : {
               "northeast" : {
                  "lat" : -25.3864945197085,
                  "lng" : -49.24948711970851
               },
               "southwest" : {
                  "lat" : -25.3891924802915,
                  "lng" : -49.25218508029151
               }
            }
         },
         "place_id" : "ChIJe2XqGdXl3JQRAJX7XZ_ZXSM",
         "plus_code" : {
            "compound_code" : "JP6X+VM Boa Vista, Curitiba - State of Paraná, Brazil",
            "global_code" : "586GJP6X+VM"
         },
         "types" : [ "establishment", "point_of_interest" ]
      },
      {
         "address_components" : [
            {
               "long_name" : "132",
               "short_name" : "132",
               "types" : [ "street_number" ]
            },
            {
               "long_name" : "Rua Francisco Prestes Maia",
               "short_name" : "R. Francisco Prestes Maia",
               "types" : [ "route" ]
            },
            {
               "long_name" : "Boa Vista",
               "short_name" : "Boa Vista",
               "types" : [ "political", "sublocality", "sublocality_level_1" ]
            },
            {
               "long_name" : "Curitiba",
               "short_name" : "Curitiba",
               "types" : [ "administrative_area_level_2", "political" ]
            },
            {
               "long_name" : "Paraná",
               "short_name" : "PR",
               "types" : [ "administrative_area_level_1", "political" ]
            },
            {
               "long_name" : "Brazil",
               "short_name" : "BR",
               "types" : [ "country", "political" ]
            },
            {
               "long_name" : "82560-010",
               "short_name" : "82560-010",
               "types" : [ "postal_code" ]
            }
         ],
         "formatted_address" : "R. Francisco Prestes Maia, 132 - Boa Vista, Curitiba - PR, 82560-010, Brazil",
         "geometry" : {
            "location" : {
               "lat" : -25.3877296,
               "lng" : -49.2504655
            },
            "location_type" : "RANGE_INTERPOLATED",
            "viewport" : {
               "northeast" : {
                  "lat" : -25.3863806197085,
                  "lng" : -49.2491165197085
               },
               "southwest" : {
                  "lat" : -25.3890785802915,
                  "lng" : -49.2518144802915
               }
            }
         },
         "place_id" : "EkxSLiBGcmFuY2lzY28gUHJlc3RlcyBNYWlhLCAxMzIgLSBCb2EgVmlzdGEsIEN1cml0aWJhIC0gUFIsIDgyNTYwLTAxMCwgQnJhemlsIhsSGQoUChIJQRP_QIzm3JQR-s283q-AvX0QhAE",
         "types" : [ "street_address" ]
      },
      {
         "address_components" : [
            {
               "long_name" : "30-154",
               "short_name" : "30-154",
               "types" : [ "street_number" ]
            },
            {
               "long_name" : "Rua Francisco Prestes Maia",
               "short_name" : "R. Francisco Prestes Maia",
               "types" : [ "route" ]
            },
            {
               "long_name" : "Boa Vista",
               "short_name" : "Boa Vista",
               "types" : [ "political", "sublocality", "sublocality_level_1" ]
            },
            {
               "long_name" : "Curitiba",
               "short_name" : "Curitiba",
               "types" : [ "administrative_area_level_2", "political" ]
            },
            {
               "long_name" : "Paraná",
               "short_name" : "PR",
               "types" : [ "administrative_area_level_1", "political" ]
            },
            {
               "long_name" : "Brazil",
               "short_name" : "BR",
               "types" : [ "country", "political" ]
            },
            {
               "long_name" : "82560-010",
               "short_name" : "82560-010",
               "types" : [ "postal_code" ]
            }
         ],
         "formatted_address" : "R. Francisco Prestes Maia, 30-154 - Boa Vista, Curitiba - PR, 82560-010, Brazil",
         "geometry" : {
            "bounds" : {
               "northeast" : {
                  "lat" : -25.3876684,
                  "lng" : -49.24966149999999
               },
               "southwest" : {
                  "lat" : -25.3883473,
                  "lng" : -49.2505453
               }
            },
            "location" : {
               "lat" : -25.3880078,
               "lng" : -49.2501033
            },
            "location_type" : "GEOMETRIC_CENTER",
            "viewport" : {
               "northeast" : {
                  "lat" : -25.3866588697085,
                  "lng" : -49.2487544197085
               },
               "southwest" : {
                  "lat" : -25.3893568302915,
                  "lng" : -49.2514523802915
               }
            }
         },
         "place_id" : "ChIJQRP_QIzm3JQR-s283q-AvX0",
         "types" : [ "route" ]
      },
      {
         "address_components" : [
            {
               "long_name" : "82560-330",
               "short_name" : "82560-330",
               "types" : [ "postal_code" ]
            },
            {
               "long_name" : "Boa Vista",
               "short_name" : "Boa Vista",
               "types" : [ "political", "sublocality", "sublocality_level_1" ]
            },
            {
               "long_name" : "Curitiba",
               "short_name" : "Curitiba",
               "types" : [ "administrative_area_level_2", "political" ]
            },
            {
               "long_name" : "State of Paraná",
               "short_name" : "PR",
               "types" : [ "administrative_area_level_1", "political" ]
            },
            {
               "long_name" : "Brazil",
               "short_name" : "BR",
               "types" : [ "country", "political" ]
            }
         ],
         "formatted_address" : "Boa Vista, Curitiba - State of Paraná, 82560-330, Brazil",
         "geometry" : {
            "bounds" : {
               "northeast" : {
                  "lat" : -25.3827197,
                  "lng" : -49.2462878
               },
               "southwest" : {
                  "lat" : -25.3883163,
                  "lng" : -49.2513412
               }
            },
            "location" : {
               "lat" : -25.3857071,
               "lng" : -49.2488245
            },
            "location_type" : "APPROXIMATE",
            "viewport" : {
               "northeast" : {
                  "lat" : -25.3827197,
                  "lng" : -49.2462878
               },
               "southwest" : {
                  "lat" : -25.3883163,
                  "lng" : -49.2513412
               }
            }
         },
         "place_id" : "ChIJE6QMXIzm3JQR3sqcmfyPiPw",
         "types" : [ "postal_code" ]
      },
      {
         "address_components" : [
            {
               "long_name" : "82560",
               "short_name" : "82560",
               "types" : [ "postal_code", "postal_code_prefix" ]
            },
            {
               "long_name" : "Boa Vista",
               "short_name" : "Boa Vista",
               "types" : [ "political", "sublocality", "sublocality_level_1" ]
            },
            {
               "long_name" : "Curitiba",
               "short_name" : "Curitiba",
               "types" : [ "administrative_area_level_2", "political" ]
            },
            {
               "long_name" : "State of Paraná",
               "short_name" : "PR",
               "types" : [ "administrative_area_level_1", "political" ]
            },
            {
               "long_name" : "Brazil",
               "short_name" : "BR",
               "types" : [ "country", "political" ]
            }
         ],
         "formatted_address" : "Boa Vista, Curitiba - State of Paraná, 82560, Brazil",
         "geometry" : {
            "bounds" : {
               "northeast" : {
                  "lat" : -25.3772091,
                  "lng" : -49.2386618
               },
               "southwest" : {
                  "lat" : -25.3912371,
                  "lng" : -49.2570033
               }
            },
            "location" : {
               "lat" : -25.3855732,
               "lng" : -49.2461329
            },
            "location_type" : "APPROXIMATE",
            "viewport" : {
               "northeast" : {
                  "lat" : -25.3772091,
                  "lng" : -49.2386618
               },
               "southwest" : {
                  "lat" : -25.3912371,
                  "lng" : -49.2570033
               }
            }
         },
         "place_id" : "ChIJd5oST4vm3JQRK46jpyevgaM",
         "types" : [ "postal_code", "postal_code_prefix" ]
      },
      {
         "address_components" : [
            {
               "long_name" : "Boa Vista",
               "short_name" : "Boa Vista",
               "types" : [ "political", "sublocality", "sublocality_level_1" ]
            },
            {
               "long_name" : "Curitiba",
               "short_name" : "Curitiba",
               "types" : [ "administrative_area_level_2", "political" ]
            },
            {
               "long_name" : "State of Paraná",
               "short_name" : "PR",
               "types" : [ "administrative_area_level_1", "political" ]
            },
            {
               "long_name" : "Brazil",
               "short_name" : "BR",
               "types" : [ "country", "political" ]
            }
         ],
         "formatted_address" : "Boa Vista, Curitiba - State of Paraná, Brazil",
         "geometry" : {
            "bounds" : {
               "northeast" : {
                  "lat" : -25.3716464,
                  "lng" : -49.2323934
               },
               "southwest" : {
                  "lat" : -25.4010466,
                  "lng" : -49.2616416
               }
            },
            "location" : {
               "lat" : -25.388446,
               "lng" : -49.2436556
            },
            "location_type" : "APPROXIMATE",
            "viewport" : {
               "northeast" : {
                  "lat" : -25.3716464,
                  "lng" : -49.2323934
               },
               "southwest" : {
                  "lat" : -25.4010466,
                  "lng" : -49.2616416
               }
            }
         },
         "place_id" : "ChIJxxscpYvm3JQRx9mRflxCxZw",
         "types" : [ "political", "sublocality", "sublocality_level_1" ]
      },
      {
         "address_components" : [
            {
               "long_name" : "Boa Vista",
               "short_name" : "Boa Vista",
               "types" : [ "administrative_area_level_4", "political" ]
            },
            {
               "long_name" : "Curitiba",
               "short_name" : "Curitiba",
               "types" : [ "administrative_area_level_2", "political" ]
            },
            {
               "long_name" : "State of Paraná",
               "short_name" : "PR",
               "types" : [ "administrative_area_level_1", "political" ]
            },
            {
               "long_name" : "Brazil",
               "short_name" : "BR",
               "types" : [ "country", "political" ]
            }
         ],
         "formatted_address" : "Boa Vista, Curitiba - State of Paraná, Brazil",
         "geometry" : {
            "bounds" : {
               "northeast" : {
                  "lat" : -25.346995,
                  "lng" : -49.1914303
               },
               "southwest" : {
                  "lat" : -25.4313697,
                  "lng" : -49.2815916
               }
            },
            "location" : {
               "lat" : -25.3886823,
               "lng" : -49.2334685
            },
            "location_type" : "APPROXIMATE",
            "viewport" : {
               "northeast" : {
                  "lat" : -25.346995,
                  "lng" : -49.1914303
               },
               "southwest" : {
                  "lat" : -25.4313697,
                  "lng" : -49.2815916
               }
            }
         },
         "place_id" : "ChIJ4yXhiYjm3JQRib7FMdA38u0",
         "types" : [ "administrative_area_level_4", "political" ]
      },
      {
         "address_components" : [
            {
               "long_name" : "Curitiba",
               "short_name" : "Curitiba",
               "types" : [ "locality", "political" ]
            },
            {
               "long_name" : "Curitiba",
               "short_name" : "Curitiba",
               "types" : [ "administrative_area_level_2", "political" ]
            },
            {
               "long_name" : "State of Paraná",
               "short_name" : "PR",
               "types" : [ "administrative_area_level_1", "political" ]
            },
            {
               "long_name" : "Brazil",
               "short_name" : "BR",
               "types" : [ "country", "political" ]
            }
         ],
         "formatted_address" : "Curitiba, State of Paraná, Brazil",
         "geometry" : {
            "bounds" : {
               "northeast" : {
                  "lat" : -25.346995,
                  "lng" : -49.1897635
               },
               "southwest" : {
                  "lat" : -25.6432382,
                  "lng" : -49.38983289999999
               }
            },
            "location" : {
               "lat" : -25.4289541,
               "lng" : -49.267137
            },
            "location_type" : "APPROXIMATE",
            "viewport" : {
               "northeast" : {
                  "lat" : -25.346995,
                  "lng" : -49.1897635
               },
               "southwest" : {
                  "lat" : -25.6432382,
                  "lng" : -49.38983289999999
               }
            }
         },
         "place_id" : "ChIJ3bPNUVPj3JQRCejLuqVrL20",
         "types" : [ "locality", "political" ]
      },
      {
         "address_components" : [
            {
               "long_name" : "Curitiba",
               "short_name" : "Curitiba",
               "types" : [ "administrative_area_level_2", "political" ]
            },
            {
               "long_name" : "State of Paraná",
               "short_name" : "PR",
               "types" : [ "administrative_area_level_1", "political" ]
            },
            {
               "long_name" : "Brazil",
               "short_name" : "BR",
               "types" : [ "country", "political" ]
            }
         ],
         "formatted_address" : "Curitiba - State of Paraná, Brazil",
         "geometry" : {
            "bounds" : {
               "northeast" : {
                  "lat" : -25.346736,
                  "lng" : -49.18522489999999
               },
               "southwest" : {
                  "lat" : -25.6453862,
                  "lng" : -49.38933859999999
               }
            },
            "location" : {
               "lat" : -25.4808762,
               "lng" : -49.3044253
            },
            "location_type" : "APPROXIMATE",
            "viewport" : {
               "northeast" : {
                  "lat" : -25.346736,
                  "lng" : -49.18522489999999
               },
               "southwest" : {
                  "lat" : -25.6453862,
                  "lng" : -49.38933859999999
               }
            }
         },
         "place_id" : "ChIJ8Q8J_PXj3JQRR7crCbCDejw",
         "types" : [ "administrative_area_level_2", "political" ]
      },
      {
         "address_components" : [
            {
               "long_name" : "State of Paraná",
               "short_name" : "PR",
               "types" : [ "administrative_area_level_1", "political" ]
            },
            {
               "long_name" : "Brazil",
               "short_name" : "BR",
               "types" : [ "country", "political" ]
            }
         ],
         "formatted_address" : "State of Paraná, Brazil",
         "geometry" : {
            "bounds" : {
               "northeast" : {
                  "lat" : -22.5166644,
                  "lng" : -48.0235303
               },
               "southwest" : {
                  "lat" : -26.7172983,
                  "lng" : -54.6192979
               }
            },
            "location" : {
               "lat" : -25.2520888,
               "lng" : -52.0215415
            },
            "location_type" : "APPROXIMATE",
            "viewport" : {
               "northeast" : {
                  "lat" : -22.5166644,
                  "lng" : -48.0235303
               },
               "southwest" : {
                  "lat" : -26.7172983,
                  "lng" : -54.6192979
               }
            }
         },
         "place_id" : "ChIJnWK4MJQL25QRYfDOY1D9k-g",
         "types" : [ "administrative_area_level_1", "political" ]
      },
      {
         "address_components" : [
            {
               "long_name" : "Brazil",
               "short_name" : "BR",
               "types" : [ "country", "political" ]
            }
         ],
         "formatted_address" : "Brazil",
         "geometry" : {
            "bounds" : {
               "northeast" : {
                  "lat" : 5.2717863,
                  "lng" : -28.650543
               },
               "southwest" : {
                  "lat" : -34.0891,
                  "lng" : -73.9828169
               }
            },
            "location" : {
               "lat" : -14.235004,
               "lng" : -51.92528
            },
            "location_type" : "APPROXIMATE",
            "viewport" : {
               "northeast" : {
                  "lat" : 5.2717863,
                  "lng" : -28.650543
               },
               "southwest" : {
                  "lat" : -34.0891,
                  "lng" : -73.9828169
               }
            }
         },
         "place_id" : "ChIJzyjM68dZnAARYz4p8gYVWik",
         "types" : [ "country", "political" ]
      }
   ],
   "status" : "OK"
}
