{
   "plus_code" : {
      "compound_code" : "JP36+63 Curitiba, State of Paraná, Brazil",
      "global_code" : "586GJP36+63"
   },
   "results" : [
      {
         "address_components" : [
            {
               "long_name" : "241",
               "short_name" : "241",
               "types" : [ "street_number" ]
            },
            {
               "long_name" : "Rua São Domingos",
               "short_name" : "R. São Domingos",
               "types" : [ "route" ]
            },
            {
               "long_name" : "Pilarzinho",
               "short_name" : "Pilarzinho",
               "types" : [ "political", "sublocality", "sublocality_level_1" ]
            },
            {
               "long_name" : "Curitiba",
               "short_name" : "Curitiba",
               "types" : [ "administrative_area_level_2", "political" ]
            },
            {
               "long_name" : "Paraná",
               "short_name" : "PR",
               "types" : [ "administrative_area_level_1", "political" ]
            },
            {
               "long_name" : "Brazil",
               "short_name" : "BR",
               "types" : [ "country", "political" ]
            },
            {
               "long_name" : "82100-390",
               "short_name" : "82100-390",
               "types" : [ "postal_code" ]
            }
         ],
         "formatted_address" : "R. São Domingos, 241 - Pilarzinho, Curitiba - PR, 82100-390, Brazil",
         "geometry" : {
            "bounds" : {
               "northeast" : {
                  "lat" : -25.3965304,
                  "lng" : -49.2898772
               },
               "southwest" : {
                  "lat" : -25.3967683,
                  "lng" : -49.2900086
               }
            },
            "location" : {
               "lat" : -25.3966519,
               "lng" : -49.2899457
            },
            "location_type" : "ROOFTOP",
            "viewport" : {
               "northeast" : {
                  "lat" : -25.39530036970849,
                  "lng" : -49.2885939197085
               },
               "southwest" : {
                  "lat" : -25.3979983302915,
                  "lng" : -49.2912918802915
               }
            }
         },
         "place_id" : "ChIJvw_sEjbh3JQR4wkAFxVcVg4",
         "types" : [ "premise" ]
      },
      {
         "address_components" : [
            {
               "long_name" : "124",
               "short_name" : "124",
               "types" : [ "street_number" ]
            },
            {
               "long_name" : "Rua Ignácio Gbur",
               "short_name" : "Rua Ignácio Gbur",
               "types" : [ "route" ]
            },
            {
               "long_name" : "Pilarzinho",
               "short_name" : "Pilarzinho",
               "types" : [ "political", "sublocality", "sublocality_level_1" ]
            },
            {
               "long_name" : "Curitiba",
               "short_name" : "Curitiba",
               "types" : [ "administrative_area_level_2", "political" ]
            },
            {
               "long_name" : "Paraná",
               "short_name" : "PR",
               "types" : [ "administrative_area_level_1", "political" ]
            },
            {
               "long_name" : "Brazil",
               "short_name" : "BR",
               "types" : [ "country", "political" ]
            },
            {
               "long_name" : "82100-370",
               "short_name" : "82100-370",
               "types" : [ "postal_code" ]
            }
         ],
         "formatted_address" : "Rua Ignácio Gbur, 124 - Pilarzinho, Curitiba - PR, 82100-370, Brazil",
         "geometry" : {
            "location" : {
               "lat" : -25.397184,
               "lng" : -49.289753
            },
            "location_type" : "ROOFTOP",
            "viewport" : {
               "northeast" : {
                  "lat" : -25.3958350197085,
                  "lng" : -49.28840401970849
               },
               "southwest" : {
                  "lat" : -25.3985329802915,
                  "lng" : -49.29110198029149
               }
            }
         },
         "place_id" : "ChIJj8EZBTbh3JQR96WkTWWMCUI",
         "plus_code" : {
            "compound_code" : "JP36+43 Curitiba, State of Paraná, Brazil",
            "global_code" : "586GJP36+43"
         },
         "types" : [ "street_address" ]
      },
      {
         "address_components" : [
            {
               "long_name" : "67",
               "short_name" : "67",
               "types" : [ "street_number" ]
            },
            {
               "long_name" : "Rua Elvira B Polak",
               "short_name" : "R. Elvira B Polak",
               "types" : [ "route" ]
            },
            {
               "long_name" : "Pilarzinho",
               "short_name" : "Pilarzinho",
               "types" : [ "political", "sublocality", "sublocality_level_1" ]
            },
            {
               "long_name" : "Curitiba",
               "short_name" : "Curitiba",
               "types" : [ "administrative_area_level_2", "political" ]
            },
            {
               "long_name" : "Paraná",
               "short_name" : "PR",
               "types" : [ "administrative_area_level_1", "political" ]
            },
            {
               "long_name" : "Brazil",
               "short_name" : "BR",
               "types" : [ "country", "political" ]
            },
            {
               "long_name" : "82100-380",
               "short_name" : "82100-380",
               "types" : [ "postal_code" ]
            }
         ],
         "formatted_address" : "R. Elvira B Polak, 67 - Pilarzinho, Curitiba - PR, 82100-380, Brazil",
         "geometry" : {
            "location" : {
               "lat" : -25.39691,
               "lng" : -49.2893683
            },
            "location_type" : "ROOFTOP",
            "viewport" : {
               "northeast" : {
                  "lat" : -25.3955610197085,
                  "lng" : -49.2880193197085
               },
               "southwest" : {
                  "lat" : -25.3982589802915,
                  "lng" : -49.2907172802915
               }
            }
         },
         "place_id" : "ChIJ121iCjbh3JQR4RP1vgsFEkQ",
         "plus_code" : {
            "compound_code" : "JP36+67 Curitiba, State of Paraná, Brazil",
            "global_code" : "586GJP36+67"
         },
         "types" : [ "establishment", "point_of_interest", "school" ]
      },
      {
         "address_components" : [
            {
               "long_name" : "175",
               "short_name" : "175",
               "types" : [ "street_number" ]
            },
            {
               "long_name" : "Rua Ignácio Gbur",
               "short_name" : "Rua Ignácio Gbur",
               "types" : [ "route" ]
            },
            {
               "long_name" : "Pilarzinho",
               "short_name" : "Pilarzinho",
               "types" : [ "political", "sublocality", "sublocality_level_1" ]
            },
            {
               "long_name" : "Curitiba",
               "short_name" : "Curitiba",
               "types" : [ "administrative_area_level_2", "political" ]
            },
            {
               "long_name" : "Paraná",
               "short_name" : "PR",
               "types" : [ "administrative_area_level_1", "political" ]
            },
            {
               "long_name" : "Brazil",
               "short_name" : "BR",
               "types" : [ "country", "political" ]
            },
            {
               "long_name" : "82100-370",
               "short_name" : "82100-370",
               "types" : [ "postal_code" ]
            }
         ],
         "formatted_address" : "Rua Ignácio Gbur, 175 - Pilarzinho, Curitiba - PR, 82100-370, Brazil",
         "geometry" : {
            "location" : {
               "lat" : -25.3972473,
               "lng" : -49.28967780000001
            },
            "location_type" : "RANGE_INTERPOLATED",
            "viewport" : {
               "northeast" : {
                  "lat" : -25.3958983197085,
                  "lng" : -49.28832881970851
               },
               "southwest" : {
                  "lat" : -25.3985962802915,
                  "lng" : -49.29102678029151
               }
            }
         },
         "place_id" : "EkVSdWEgSWduw6FjaW8gR2J1ciwgMTc1IC0gUGlsYXJ6aW5obywgQ3VyaXRpYmEgLSBQUiwgODIxMDAtMzcwLCBCcmF6aWwiGxIZChQKEgkBEpoENuHclBEDzlFgHXyYHhCvAQ",
         "types" : [ "street_address" ]
      },
      {
         "address_components" : [
            {
               "long_name" : "118-254",
               "short_name" : "118-254",
               "types" : [ "street_number" ]
            },
            {
               "long_name" : "Rua Ignácio Gbur",
               "short_name" : "Rua Ignácio Gbur",
               "types" : [ "route" ]
            },
            {
               "long_name" : "Pilarzinho",
               "short_name" : "Pilarzinho",
               "types" : [ "political", "sublocality", "sublocality_level_1" ]
            },
            {
               "long_name" : "Curitiba",
               "short_name" : "Curitiba",
               "types" : [ "administrative_area_level_2", "political" ]
            },
            {
               "long_name" : "Paraná",
               "short_name" : "PR",
               "types" : [ "administrative_area_level_1", "political" ]
            },
            {
               "long_name" : "Brazil",
               "short_name" : "BR",
               "types" : [ "country", "political" ]
            },
            {
               "long_name" : "82100-370",
               "short_name" : "82100-370",
               "types" : [ "postal_code" ]
            }
         ],
         "formatted_address" : "Rua Ignácio Gbur, 118-254 - Pilarzinho, Curitiba - PR, 82100-370, Brazil",
         "geometry" : {
            "bounds" : {
               "northeast" : {
                  "lat" : -25.3970618,
                  "lng" : -49.2891513
               },
               "southwest" : {
                  "lat" : -25.3974664,
                  "lng" : -49.2904099
               }
            },
            "location" : {
               "lat" : -25.3972808,
               "lng" : -49.289774
            },
            "location_type" : "GEOMETRIC_CENTER",
            "viewport" : {
               "northeast" : {
                  "lat" : -25.39591511970849,
                  "lng" : -49.2884316197085
               },
               "southwest" : {
                  "lat" : -25.3986130802915,
                  "lng" : -49.2911295802915
               }
            }
         },
         "place_id" : "ChIJARKaBDbh3JQRAs5RYB18mB4",
         "types" : [ "route" ]
      },
      {
         "address_components" : [
            {
               "long_name" : "82100-390",
               "short_name" : "82100-390",
               "types" : [ "postal_code" ]
            },
            {
               "long_name" : "Pilarzinho",
               "short_name" : "Pilarzinho",
               "types" : [ "political", "sublocality", "sublocality_level_1" ]
            },
            {
               "long_name" : "Curitiba",
               "short_name" : "Curitiba",
               "types" : [ "administrative_area_level_2", "political" ]
            },
            {
               "long_name" : "State of Paraná",
               "short_name" : "PR",
               "types" : [ "administrative_area_level_1", "political" ]
            },
            {
               "long_name" : "Brazil",
               "short_name" : "BR",
               "types" : [ "country", "political" ]
            }
         ],
         "formatted_address" : "Pilarzinho, Curitiba - State of Paraná, 82100-390, Brazil",
         "geometry" : {
            "bounds" : {
               "northeast" : {
                  "lat" : -25.3935107,
                  "lng" : -49.2877598
               },
               "southwest" : {
                  "lat" : -25.3970893,
                  "lng" : -49.2960132
               }
            },
            "location" : {
               "lat" : -25.3956952,
               "lng" : -49.2920649
            },
            "location_type" : "APPROXIMATE",
            "viewport" : {
               "northeast" : {
                  "lat" : -25.3935107,
                  "lng" : -49.2877598
               },
               "southwest" : {
                  "lat" : -25.3970893,
                  "lng" : -49.2960132
               }
            }
         },
         "place_id" : "ChIJo98TsTfh3JQRCIs5E5nK4Eg",
         "types" : [ "postal_code" ]
      },
      {
         "address_components" : [
            {
               "long_name" : "82100",
               "short_name" : "82100",
               "types" : [ "postal_code", "postal_code_prefix" ]
            },
            {
               "long_name" : "Curitiba",
               "short_name" : "Curitiba",
               "types" : [ "administrative_area_level_2", "political" ]
            },
            {
               "long_name" : "State of Paraná",
               "short_name" : "PR",
               "types" : [ "administrative_area_level_1", "political" ]
            },
            {
               "long_name" : "Brazil",
               "short_name" : "BR",
               "types" : [ "country", "political" ]
            }
         ],
         "formatted_address" : "Curitiba - State of Paraná, 82100, Brazil",
         "geometry" : {
            "bounds" : {
               "northeast" : {
                  "lat" : -25.3900547,
                  "lng" : -49.2798567
               },
               "southwest" : {
                  "lat" : -25.4074262,
                  "lng" : -49.3019378
               }
            },
            "location" : {
               "lat" : -25.4007895,
               "lng" : -49.291748
            },
            "location_type" : "APPROXIMATE",
            "viewport" : {
               "northeast" : {
                  "lat" : -25.3900547,
                  "lng" : -49.2798567
               },
               "southwest" : {
                  "lat" : -25.4074262,
                  "lng" : -49.3019378
               }
            }
         },
         "place_id" : "ChIJXybCxEnh3JQRNPWg6I9pikU",
         "types" : [ "postal_code", "postal_code_prefix" ]
      },
      {
         "address_components" : [
            {
               "long_name" : "Pilarzinho",
               "short_name" : "Pilarzinho",
               "types" : [ "political", "sublocality", "sublocality_level_1" ]
            },
            {
               "long_name" : "Curitiba",
               "short_name" : "Curitiba",
               "types" : [ "administrative_area_level_2", "political" ]
            },
            {
               "long_name" : "State of Paraná",
               "short_name" : "PR",
               "types" : [ "administrative_area_level_1", "political" ]
            },
            {
               "long_name" : "Brazil",
               "short_name" : "BR",
               "types" : [ "country", "political" ]
            }
         ],
         "formatted_address" : "Pilarzinho, Curitiba - State of Paraná, Brazil",
         "geometry" : {
            "bounds" : {
               "northeast" : {
                  "lat" : -25.3750081,
                  "lng" : -49.2711122
               },
               "southwest" : {
                  "lat" : -25.4041924,
                  "lng" : -49.3052765
               }
            },
            "location" : {
               "lat" : -25.39629,
               "lng" : -49.2875992
            },
            "location_type" : "APPROXIMATE",
            "viewport" : {
               "northeast" : {
                  "lat" : -25.3750081,
                  "lng" : -49.2711122
               },
               "southwest" : {
                  "lat" : -25.4041924,
                  "lng" : -49.3052765
               }
            }
         },
         "place_id" : "ChIJWQuM6zPh3JQR1_AE4OwV5jU",
         "types" : [ "political", "sublocality", "sublocality_level_1" ]
      },
      {
         "address_components" : [
            {
               "long_name" : "Curitiba",
               "short_name" : "Curitiba",
               "types" : [ "locality", "political" ]
            },
            {
               "long_name" : "Curitiba",
               "short_name" : "Curitiba",
               "types" : [ "administrative_area_level_2", "political" ]
            },
            {
               "long_name" : "State of Paraná",
               "short_name" : "PR",
               "types" : [ "administrative_area_level_1", "political" ]
            },
            {
               "long_name" : "Brazil",
               "short_name" : "BR",
               "types" : [ "country", "political" ]
            }
         ],
         "formatted_address" : "Curitiba, State of Paraná, Brazil",
         "geometry" : {
            "bounds" : {
               "northeast" : {
                  "lat" : -25.346995,
                  "lng" : -49.1897635
               },
               "southwest" : {
                  "lat" : -25.6432382,
                  "lng" : -49.38983289999999
               }
            },
            "location" : {
               "lat" : -25.4289541,
               "lng" : -49.267137
            },
            "location_type" : "APPROXIMATE",
            "viewport" : {
               "northeast" : {
                  "lat" : -25.346995,
                  "lng" : -49.1897635
               },
               "southwest" : {
                  "lat" : -25.6432382,
                  "lng" : -49.38983289999999
               }
            }
         },
         "place_id" : "ChIJ3bPNUVPj3JQRCejLuqVrL20",
         "types" : [ "locality", "political" ]
      },
      {
         "address_components" : [
            {
               "long_name" : "Curitiba",
               "short_name" : "Curitiba",
               "types" : [ "administrative_area_level_2", "political" ]
            },
            {
               "long_name" : "State of Paraná",
               "short_name" : "PR",
               "types" : [ "administrative_area_level_1", "political" ]
            },
            {
               "long_name" : "Brazil",
               "short_name" : "BR",
               "types" : [ "country", "political" ]
            }
         ],
         "formatted_address" : "Curitiba - State of Paraná, Brazil",
         "geometry" : {
            "bounds" : {
               "northeast" : {
                  "lat" : -25.346736,
                  "lng" : -49.18522489999999
               },
               "southwest" : {
                  "lat" : -25.6453862,
                  "lng" : -49.38933859999999
               }
            },
            "location" : {
               "lat" : -25.4808762,
               "lng" : -49.3044253
            },
            "location_type" : "APPROXIMATE",
            "viewport" : {
               "northeast" : {
                  "lat" : -25.346736,
                  "lng" : -49.18522489999999
               },
               "southwest" : {
                  "lat" : -25.6453862,
                  "lng" : -49.38933859999999
               }
            }
         },
         "place_id" : "ChIJ8Q8J_PXj3JQRR7crCbCDejw",
         "types" : [ "administrative_area_level_2", "political" ]
      },
      {
         "address_components" : [
            {
               "long_name" : "State of Paraná",
               "short_name" : "PR",
               "types" : [ "administrative_area_level_1", "political" ]
            },
            {
               "long_name" : "Brazil",
               "short_name" : "BR",
               "types" : [ "country", "political" ]
            }
         ],
         "formatted_address" : "State of Paraná, Brazil",
         "geometry" : {
            "bounds" : {
               "northeast" : {
                  "lat" : -22.5166644,
                  "lng" : -48.0235303
               },
               "southwest" : {
                  "lat" : -26.7172983,
                  "lng" : -54.6192979
               }
            },
            "location" : {
               "lat" : -25.2520888,
               "lng" : -52.0215415
            },
            "location_type" : "APPROXIMATE",
            "viewport" : {
               "northeast" : {
                  "lat" : -22.5166644,
                  "lng" : -48.0235303
               },
               "southwest" : {
                  "lat" : -26.7172983,
                  "lng" : -54.6192979
               }
            }
         },
         "place_id" : "ChIJnWK4MJQL25QRYfDOY1D9k-g",
         "types" : [ "administrative_area_level_1", "political" ]
      },
      {
         "address_components" : [
            {
               "long_name" : "Brazil",
               "short_name" : "BR",
               "types" : [ "country", "political" ]
            }
         ],
         "formatted_address" : "Brazil",
         "geometry" : {
            "bounds" : {
               "northeast" : {
                  "lat" : 5.2717863,
                  "lng" : -28.650543
               },
               "southwest" : {
                  "lat" : -34.0891,
                  "lng" : -73.9828169
               }
            },
            "location" : {
               "lat" : -14.235004,
               "lng" : -51.92528
            },
            "location_type" : "APPROXIMATE",
            "viewport" : {
               "northeast" : {
                  "lat" : 5.2717863,
                  "lng" : -28.650543
               },
               "southwest" : {
                  "lat" : -34.0891,
                  "lng" : -73.9828169
               }
            }
         },
         "place_id" : "ChIJzyjM68dZnAARYz4p8gYVWik",
         "types" : [ "country", "political" ]
      }
   ],
   "status" : "OK"
}
