{
   "plus_code" : {
      "compound_code" : "HP7X+24 Curitiba, State of Paraná, Brazil",
      "global_code" : "586GHP7X+24"
   },
   "results" : [
      {
         "address_components" : [
            {
               "long_name" : "393",
               "short_name" : "393",
               "types" : [ "street_number" ]
            },
            {
               "long_name" : "Rua Engenheiro Leão Sounis",
               "short_name" : "R. Eng. Leão Sounis",
               "types" : [ "route" ]
            },
            {
               "long_name" : "Jardim Botânico",
               "short_name" : "Jardim Botânico",
               "types" : [ "political", "sublocality", "sublocality_level_1" ]
            },
            {
               "long_name" : "Curitiba",
               "short_name" : "Curitiba",
               "types" : [ "administrative_area_level_2", "political" ]
            },
            {
               "long_name" : "Paraná",
               "short_name" : "PR",
               "types" : [ "administrative_area_level_1", "political" ]
            },
            {
               "long_name" : "Brazil",
               "short_name" : "BR",
               "types" : [ "country", "political" ]
            },
            {
               "long_name" : "82860-140",
               "short_name" : "82860-140",
               "types" : [ "postal_code" ]
            }
         ],
         "formatted_address" : "R. Eng. Leão Sounis, 393 - Jardim Botânico, Curitiba - PR, 82860-140, Brazil",
         "geometry" : {
            "location" : {
               "lat" : -25.4375984,
               "lng" : -49.2522543
            },
            "location_type" : "ROOFTOP",
            "viewport" : {
               "northeast" : {
                  "lat" : -25.4362494197085,
                  "lng" : -49.2509053197085
               },
               "southwest" : {
                  "lat" : -25.4389473802915,
                  "lng" : -49.25360328029149
               }
            }
         },
         "place_id" : "ChIJlQ2z61Dk3JQR-hc5fDtlClQ",
         "plus_code" : {
            "compound_code" : "HP6X+X3 Curitiba, State of Paraná, Brazil",
            "global_code" : "586GHP6X+X3"
         },
         "types" : [ "street_address" ]
      },
      {
         "address_components" : [
            {
               "long_name" : "429",
               "short_name" : "429",
               "types" : [ "street_number" ]
            },
            {
               "long_name" : "Rua Engenheiro Leão Sounis",
               "short_name" : "R. Eng. Leão Sounis",
               "types" : [ "route" ]
            },
            {
               "long_name" : "Jardim Botânico",
               "short_name" : "Jardim Botânico",
               "types" : [ "political", "sublocality", "sublocality_level_1" ]
            },
            {
               "long_name" : "Curitiba",
               "short_name" : "Curitiba",
               "types" : [ "administrative_area_level_2", "political" ]
            },
            {
               "long_name" : "Paraná",
               "short_name" : "PR",
               "types" : [ "administrative_area_level_1", "political" ]
            },
            {
               "long_name" : "Brazil",
               "short_name" : "BR",
               "types" : [ "country", "political" ]
            },
            {
               "long_name" : "80210-020",
               "short_name" : "80210-020",
               "types" : [ "postal_code" ]
            }
         ],
         "formatted_address" : "R. Eng. Leão Sounis, 429 - Jardim Botânico, Curitiba - PR, 80210-020, Brazil",
         "geometry" : {
            "location" : {
               "lat" : -25.4377192,
               "lng" : -49.2524181
            },
            "location_type" : "ROOFTOP",
            "viewport" : {
               "northeast" : {
                  "lat" : -25.4363702197085,
                  "lng" : -49.2510691197085
               },
               "southwest" : {
                  "lat" : -25.4390681802915,
                  "lng" : -49.2537670802915
               }
            }
         },
         "place_id" : "ChIJLfs-bFHk3JQRD7dwdxl5Ew4",
         "plus_code" : {
            "compound_code" : "HP6X+W2 Curitiba, State of Paraná, Brazil",
            "global_code" : "586GHP6X+W2"
         },
         "types" : [ "establishment", "premise" ]
      },
      {
         "address_components" : [
            {
               "long_name" : "24",
               "short_name" : "24",
               "types" : [ "street_number" ]
            },
            {
               "long_name" : "Rua Engenheiro Leão Sounis",
               "short_name" : "R. Eng. Leão Sounis",
               "types" : [ "route" ]
            },
            {
               "long_name" : "Jardim Botânico",
               "short_name" : "Jardim Botânico",
               "types" : [ "political", "sublocality", "sublocality_level_1" ]
            },
            {
               "long_name" : "Curitiba",
               "short_name" : "Curitiba",
               "types" : [ "administrative_area_level_2", "political" ]
            },
            {
               "long_name" : "Paraná",
               "short_name" : "PR",
               "types" : [ "administrative_area_level_1", "political" ]
            },
            {
               "long_name" : "Brazil",
               "short_name" : "BR",
               "types" : [ "country", "political" ]
            },
            {
               "long_name" : "82860-140",
               "short_name" : "82860-140",
               "types" : [ "postal_code" ]
            }
         ],
         "formatted_address" : "R. Eng. Leão Sounis, 24 - Jardim Botânico, Curitiba - PR, 82860-140, Brazil",
         "geometry" : {
            "location" : {
               "lat" : -25.4374202,
               "lng" : -49.2522059
            },
            "location_type" : "RANGE_INTERPOLATED",
            "viewport" : {
               "northeast" : {
                  "lat" : -25.4360712197085,
                  "lng" : -49.2508569197085
               },
               "southwest" : {
                  "lat" : -25.4387691802915,
                  "lng" : -49.2535548802915
               }
            }
         },
         "place_id" : "EkJSLiBFbmcuIExlw6NvIFNvdW5pcywgMjQgLSBKYXJkaW0gQm90w6JuaWNvLCBDdXJpdGliYSAtIFBSLCBCcmF6aWwiGhIYChQKEgmz-YjsUOTclBH7bHCKbMCI5BAY",
         "types" : [ "street_address" ]
      },
      {
         "address_components" : [
            {
               "long_name" : "429-393",
               "short_name" : "429-393",
               "types" : [ "street_number" ]
            },
            {
               "long_name" : "Rua Engenheiro Leão Sounis",
               "short_name" : "R. Eng. Leão Sounis",
               "types" : [ "route" ]
            },
            {
               "long_name" : "Jardim Botânico",
               "short_name" : "Jardim Botânico",
               "types" : [ "political", "sublocality", "sublocality_level_1" ]
            },
            {
               "long_name" : "Curitiba",
               "short_name" : "Curitiba",
               "types" : [ "administrative_area_level_2", "political" ]
            },
            {
               "long_name" : "Paraná",
               "short_name" : "PR",
               "types" : [ "administrative_area_level_1", "political" ]
            },
            {
               "long_name" : "Brazil",
               "short_name" : "BR",
               "types" : [ "country", "political" ]
            },
            {
               "long_name" : "82860-140",
               "short_name" : "82860-140",
               "types" : [ "postal_code" ]
            }
         ],
         "formatted_address" : "R. Eng. Leão Sounis, 429-393 - Jardim Botânico, Curitiba - PR, 82860-140, Brazil",
         "geometry" : {
            "bounds" : {
               "northeast" : {
                  "lat" : -25.4373473,
                  "lng" : -49.2520007
               },
               "southwest" : {
                  "lat" : -25.4375725,
                  "lng" : -49.2526349
               }
            },
            "location" : {
               "lat" : -25.4374599,
               "lng" : -49.2523178
            },
            "location_type" : "GEOMETRIC_CENTER",
            "viewport" : {
               "northeast" : {
                  "lat" : -25.4361109197085,
                  "lng" : -49.2509688197085
               },
               "southwest" : {
                  "lat" : -25.4388088802915,
                  "lng" : -49.2536667802915
               }
            }
         },
         "place_id" : "ChIJs_mI7FDk3JQR-mxwimzAiOQ",
         "types" : [ "route" ]
      },
      {
         "address_components" : [
            {
               "long_name" : "80210-020",
               "short_name" : "80210-020",
               "types" : [ "postal_code" ]
            },
            {
               "long_name" : "Jardim Botânico",
               "short_name" : "Jardim Botânico",
               "types" : [ "political", "sublocality", "sublocality_level_1" ]
            },
            {
               "long_name" : "Curitiba",
               "short_name" : "Curitiba",
               "types" : [ "administrative_area_level_2", "political" ]
            },
            {
               "long_name" : "State of Paraná",
               "short_name" : "PR",
               "types" : [ "administrative_area_level_1", "political" ]
            },
            {
               "long_name" : "Brazil",
               "short_name" : "BR",
               "types" : [ "country", "political" ]
            }
         ],
         "formatted_address" : "Jardim Botânico, Curitiba - State of Paraná, 80210-020, Brazil",
         "geometry" : {
            "bounds" : {
               "northeast" : {
                  "lat" : -25.4366237,
                  "lng" : -49.2498777
               },
               "southwest" : {
                  "lat" : -25.4381134,
                  "lng" : -49.2531183
               }
            },
            "location" : {
               "lat" : -25.4374122,
               "lng" : -49.2516745
            },
            "location_type" : "APPROXIMATE",
            "viewport" : {
               "northeast" : {
                  "lat" : -25.4360195697085,
                  "lng" : -49.2498777
               },
               "southwest" : {
                  "lat" : -25.4387175302915,
                  "lng" : -49.2531183
               }
            }
         },
         "place_id" : "ChIJ0SHaE1Hk3JQRK8wP0CoXc6U",
         "types" : [ "postal_code" ]
      },
      {
         "address_components" : [
            {
               "long_name" : "Jardim Botânico",
               "short_name" : "Jardim Botânico",
               "types" : [ "political", "sublocality", "sublocality_level_1" ]
            },
            {
               "long_name" : "Curitiba",
               "short_name" : "Curitiba",
               "types" : [ "administrative_area_level_2", "political" ]
            },
            {
               "long_name" : "State of Paraná",
               "short_name" : "PR",
               "types" : [ "administrative_area_level_1", "political" ]
            },
            {
               "long_name" : "Brazil",
               "short_name" : "BR",
               "types" : [ "country", "political" ]
            },
            {
               "long_name" : "82590-300",
               "short_name" : "82590-300",
               "types" : [ "postal_code" ]
            }
         ],
         "formatted_address" : "Jardim Botânico, Curitiba - State of Paraná, 80210, Brazil",
         "geometry" : {
            "bounds" : {
               "northeast" : {
                  "lat" : -25.4347646,
                  "lng" : -49.2350711
               },
               "southwest" : {
                  "lat" : -25.4503455,
                  "lng" : -49.2586856
               }
            },
            "location" : {
               "lat" : -25.4442728,
               "lng" : -49.2461329
            },
            "location_type" : "APPROXIMATE",
            "viewport" : {
               "northeast" : {
                  "lat" : -25.4347646,
                  "lng" : -49.2350711
               },
               "southwest" : {
                  "lat" : -25.4503455,
                  "lng" : -49.2586856
               }
            }
         },
         "place_id" : "ChIJkWMbZf_k3JQRNDbTAAIa5Kg",
         "types" : [ "postal_code", "postal_code_prefix" ]
      },
      {
         "address_components" : [
            {
               "long_name" : "Jardim Botânico",
               "short_name" : "Jardim Botânico",
               "types" : [ "political", "sublocality", "sublocality_level_1" ]
            },
            {
               "long_name" : "Curitiba",
               "short_name" : "Curitiba",
               "types" : [ "administrative_area_level_2", "political" ]
            },
            {
               "long_name" : "State of Paraná",
               "short_name" : "PR",
               "types" : [ "administrative_area_level_1", "political" ]
            },
            {
               "long_name" : "Brazil",
               "short_name" : "BR",
               "types" : [ "country", "political" ]
            },
            {
               "long_name" : "82590-300",
               "short_name" : "82590-300",
               "types" : [ "postal_code" ]
            }
         ],
         "formatted_address" : "Jardim Botânico, Curitiba - State of Paraná, 82590-300, Brazil",
         "geometry" : {
            "bounds" : {
               "northeast" : {
                  "lat" : -25.4333954,
                  "lng" : -49.2334525
               },
               "southwest" : {
                  "lat" : -25.4532266,
                  "lng" : -49.26046969999999
               }
            },
            "location" : {
               "lat" : -25.4413645,
               "lng" : -49.2486019
            },
            "location_type" : "APPROXIMATE",
            "viewport" : {
               "northeast" : {
                  "lat" : -25.4333954,
                  "lng" : -49.2334525
               },
               "southwest" : {
                  "lat" : -25.4532266,
                  "lng" : -49.26046969999999
               }
            }
         },
         "place_id" : "ChIJZW0jbP_k3JQRhKfaYzO_udw",
         "types" : [ "political", "sublocality", "sublocality_level_1" ]
      },
      {
         "address_components" : [
            {
               "long_name" : "Matriz",
               "short_name" : "Matriz",
               "types" : [ "administrative_area_level_4", "political" ]
            },
            {
               "long_name" : "Curitiba",
               "short_name" : "Curitiba",
               "types" : [ "administrative_area_level_2", "political" ]
            },
            {
               "long_name" : "State of Paraná",
               "short_name" : "PR",
               "types" : [ "administrative_area_level_1", "political" ]
            },
            {
               "long_name" : "Brazil",
               "short_name" : "BR",
               "types" : [ "country", "political" ]
            }
         ],
         "formatted_address" : "Matriz, Curitiba - State of Paraná, Brazil",
         "geometry" : {
            "bounds" : {
               "northeast" : {
                  "lat" : -25.3928639,
                  "lng" : -49.2184679
               },
               "southwest" : {
                  "lat" : -25.4688678,
                  "lng" : -49.3192934
               }
            },
            "location" : {
               "lat" : -25.4217847,
               "lng" : -49.2740045
            },
            "location_type" : "APPROXIMATE",
            "viewport" : {
               "northeast" : {
                  "lat" : -25.3928639,
                  "lng" : -49.2184679
               },
               "southwest" : {
                  "lat" : -25.4688678,
                  "lng" : -49.3192934
               }
            }
         },
         "place_id" : "ChIJSdL-QBTk3JQRTa4Zsr5CKw0",
         "types" : [ "administrative_area_level_4", "political" ]
      },
      {
         "address_components" : [
            {
               "long_name" : "Curitiba",
               "short_name" : "Curitiba",
               "types" : [ "locality", "political" ]
            },
            {
               "long_name" : "Curitiba",
               "short_name" : "Curitiba",
               "types" : [ "administrative_area_level_2", "political" ]
            },
            {
               "long_name" : "State of Paraná",
               "short_name" : "PR",
               "types" : [ "administrative_area_level_1", "political" ]
            },
            {
               "long_name" : "Brazil",
               "short_name" : "BR",
               "types" : [ "country", "political" ]
            }
         ],
         "formatted_address" : "Curitiba, State of Paraná, Brazil",
         "geometry" : {
            "bounds" : {
               "northeast" : {
                  "lat" : -25.346995,
                  "lng" : -49.1897635
               },
               "southwest" : {
                  "lat" : -25.6432382,
                  "lng" : -49.38983289999999
               }
            },
            "location" : {
               "lat" : -25.4289541,
               "lng" : -49.267137
            },
            "location_type" : "APPROXIMATE",
            "viewport" : {
               "northeast" : {
                  "lat" : -25.346995,
                  "lng" : -49.1897635
               },
               "southwest" : {
                  "lat" : -25.6432382,
                  "lng" : -49.38983289999999
               }
            }
         },
         "place_id" : "ChIJ3bPNUVPj3JQRCejLuqVrL20",
         "types" : [ "locality", "political" ]
      },
      {
         "address_components" : [
            {
               "long_name" : "Curitiba",
               "short_name" : "Curitiba",
               "types" : [ "administrative_area_level_2", "political" ]
            },
            {
               "long_name" : "State of Paraná",
               "short_name" : "PR",
               "types" : [ "administrative_area_level_1", "political" ]
            },
            {
               "long_name" : "Brazil",
               "short_name" : "BR",
               "types" : [ "country", "political" ]
            }
         ],
         "formatted_address" : "Curitiba - State of Paraná, Brazil",
         "geometry" : {
            "bounds" : {
               "northeast" : {
                  "lat" : -25.346736,
                  "lng" : -49.18522489999999
               },
               "southwest" : {
                  "lat" : -25.6453862,
                  "lng" : -49.38933859999999
               }
            },
            "location" : {
               "lat" : -25.4808762,
               "lng" : -49.3044253
            },
            "location_type" : "APPROXIMATE",
            "viewport" : {
               "northeast" : {
                  "lat" : -25.346736,
                  "lng" : -49.18522489999999
               },
               "southwest" : {
                  "lat" : -25.6453862,
                  "lng" : -49.38933859999999
               }
            }
         },
         "place_id" : "ChIJ8Q8J_PXj3JQRR7crCbCDejw",
         "types" : [ "administrative_area_level_2", "political" ]
      },
      {
         "address_components" : [
            {
               "long_name" : "State of Paraná",
               "short_name" : "PR",
               "types" : [ "administrative_area_level_1", "political" ]
            },
            {
               "long_name" : "Brazil",
               "short_name" : "BR",
               "types" : [ "country", "political" ]
            }
         ],
         "formatted_address" : "State of Paraná, Brazil",
         "geometry" : {
            "bounds" : {
               "northeast" : {
                  "lat" : -22.5166644,
                  "lng" : -48.0235303
               },
               "southwest" : {
                  "lat" : -26.7172983,
                  "lng" : -54.6192979
               }
            },
            "location" : {
               "lat" : -25.2520888,
               "lng" : -52.0215415
            },
            "location_type" : "APPROXIMATE",
            "viewport" : {
               "northeast" : {
                  "lat" : -22.5166644,
                  "lng" : -48.0235303
               },
               "southwest" : {
                  "lat" : -26.7172983,
                  "lng" : -54.6192979
               }
            }
         },
         "place_id" : "ChIJnWK4MJQL25QRYfDOY1D9k-g",
         "types" : [ "administrative_area_level_1", "political" ]
      },
      {
         "address_components" : [
            {
               "long_name" : "Brazil",
               "short_name" : "BR",
               "types" : [ "country", "political" ]
            }
         ],
         "formatted_address" : "Brazil",
         "geometry" : {
            "bounds" : {
               "northeast" : {
                  "lat" : 5.2717863,
                  "lng" : -28.650543
               },
               "southwest" : {
                  "lat" : -34.0891,
                  "lng" : -73.9828169
               }
            },
            "location" : {
               "lat" : -14.235004,
               "lng" : -51.92528
            },
            "location_type" : "APPROXIMATE",
            "viewport" : {
               "northeast" : {
                  "lat" : 5.2717863,
                  "lng" : -28.650543
               },
               "southwest" : {
                  "lat" : -34.0891,
                  "lng" : -73.9828169
               }
            }
         },
         "place_id" : "ChIJzyjM68dZnAARYz4p8gYVWik",
         "types" : [ "country", "political" ]
      }
   ],
   "status" : "OK"
}
